[
  {
    "lastaddress": "Los Angeles",
    "m_originalstate": "CA",
    "w_assemblycenter": "Manzanar",
    "m_camp": "Manzanar",
    "pop": 6946,
    "lastaddress_lat": 34.1139,
    "lastaddress_lng": -118.4068,
    "m_camp_lat": 36.7333,
    "m_camp_lng": -118.0667
  },
  {
    "lastaddress": "Seattle",
    "m_originalstate": "WA",
    "w_assemblycenter": "Puyallup",
    "m_camp": "Minidoka",
    "pop": 5754,
    "lastaddress_lat": 47.6211,
    "lastaddress_lng": -122.3244,
    "m_camp_lat": 42.6667,
    "m_camp_lng": -114.2333
  },
  {
    "lastaddress": "Sacramento",
    "m_originalstate": "CA",
    "w_assemblycenter": "Sacramento (Walerga)",
    "m_camp": "Tulelake",
    "pop": 3209,
    "lastaddress_lat": 38.5667,
    "lastaddress_lng": -121.4683,
    "m_camp_lat": 41.8833,
    "m_camp_lng": -121.3667
  },
  {
    "lastaddress": "San Francisco",
    "m_originalstate": "CA",
    "w_assemblycenter": "Tanforan",
    "m_camp": "Topaz",
    "pop": 2787,
    "lastaddress_lat": 37.7562,
    "lastaddress_lng": -122.443,
    "m_camp_lat": 39.3833,
    "m_camp_lng": -112.7167
  },
  {
    "lastaddress": "Los Angeles",
    "m_originalstate": "CA",
    "w_assemblycenter": "Santa Anita",
    "m_camp": "Amache",
    "pop": 2588,
    "lastaddress_lat": 34.1139,
    "lastaddress_lng": -118.4068,
    "m_camp_lat": 38.05,
    "m_camp_lng": -102.3
  },
  {
    "lastaddress": "Los Angeles",
    "m_originalstate": "CA",
    "w_assemblycenter": "Pomona",
    "m_camp": "Heartmountain",
    "pop": 2564,
    "lastaddress_lat": 34.1139,
    "lastaddress_lng": -118.4068,
    "m_camp_lat": 44.5167,
    "m_camp_lng": -109.05
  },
  {
    "lastaddress": "Oakland",
    "m_originalstate": "CA",
    "w_assemblycenter": "Tanforan",
    "m_camp": "Topaz",
    "pop": 2536,
    "lastaddress_lat": 37.7903,
    "lastaddress_lng": -122.2165,
    "m_camp_lat": 39.3833,
    "m_camp_lng": -112.7167
  },
  {
    "lastaddress": "Los Angeles",
    "m_originalstate": "CA",
    "w_assemblycenter": "Santa Anita",
    "m_camp": "Heartmountain",
    "pop": 2345,
    "lastaddress_lat": 34.1139,
    "lastaddress_lng": -118.4068,
    "m_camp_lat": 44.5167,
    "m_camp_lng": -109.05
  },
  {
    "lastaddress": "Spokane",
    "m_originalstate": "WA",
    "w_assemblycenter": "Portland",
    "m_camp": "Minidoka",
    "pop": 2205,
    "lastaddress_lat": 47.6671,
    "lastaddress_lng": -117.433,
    "m_camp_lat": 42.6667,
    "m_camp_lng": -114.2333
  },
  {
    "lastaddress": "Los Angeles",
    "m_originalstate": "CA",
    "w_assemblycenter": "Santa Anita",
    "m_camp": "Rohwer",
    "pop": 2110,
    "lastaddress_lat": 34.1139,
    "lastaddress_lng": -118.4068,
    "m_camp_lat": 33.75,
    "m_camp_lng": -91.2667
  },
  {
    "lastaddress": "Los Angeles",
    "m_originalstate": "CA",
    "w_assemblycenter": "None",
    "m_camp": "Poston",
    "pop": 2100,
    "lastaddress_lat": 34.1139,
    "lastaddress_lng": -118.4068,
    "m_camp_lat": 34.15,
    "m_camp_lng": -114.2833
  },
  {
    "lastaddress": "Stockton",
    "m_originalstate": "CA",
    "w_assemblycenter": "Stockton",
    "m_camp": "Rohwer",
    "pop": 2088,
    "lastaddress_lat": 37.9765,
    "lastaddress_lng": -121.3109,
    "m_camp_lat": 33.75,
    "m_camp_lng": -91.2667
  },
  {
    "lastaddress": "Fresno",
    "m_originalstate": "CA",
    "w_assemblycenter": "Fresno",
    "m_camp": "Jerome",
    "pop": 1459,
    "lastaddress_lat": 36.7831,
    "lastaddress_lng": -119.7941,
    "m_camp_lat": 33.3833,
    "m_camp_lng": -91.4667
  },
  {
    "lastaddress": "Renton",
    "m_originalstate": "WA",
    "w_assemblycenter": "Pinedale",
    "m_camp": "Tulelake",
    "pop": 1365,
    "lastaddress_lat": 47.4784,
    "lastaddress_lng": -122.1919,
    "m_camp_lat": 41.8833,
    "m_camp_lng": -121.3667
  },
  {
    "lastaddress": "Salinas",
    "m_originalstate": "CA",
    "w_assemblycenter": "Salinas",
    "m_camp": "Poston",
    "pop": 1306,
    "lastaddress_lat": 36.6884,
    "lastaddress_lng": -121.6317,
    "m_camp_lat": 34.15,
    "m_camp_lng": -114.2833
  },
  {
    "lastaddress": "Selma",
    "m_originalstate": "CA",
    "w_assemblycenter": "None",
    "m_camp": "Poston",
    "pop": 1166,
    "lastaddress_lat": 36.5715,
    "lastaddress_lng": -119.6143,
    "m_camp_lat": 34.15,
    "m_camp_lng": -114.2833
  },
  {
    "lastaddress": "Rocklin",
    "m_originalstate": "CA",
    "w_assemblycenter": "Marysville (Arboga)",
    "m_camp": "Tulelake",
    "pop": 1162,
    "lastaddress_lat": 38.8075,
    "lastaddress_lng": -121.2488,
    "m_camp_lat": 41.8833,
    "m_camp_lng": -121.3667
  },
  {
    "lastaddress": "San Joaquin",
    "m_originalstate": "CA",
    "w_assemblycenter": "None",
    "m_camp": "Gilariver",
    "pop": 1156,
    "lastaddress_lat": 36.6057,
    "lastaddress_lng": -120.1897,
    "m_camp_lat": 32.1667,
    "m_camp_lng": -111.8667
  },
  {
    "lastaddress": "Watsonville",
    "m_originalstate": "CA",
    "w_assemblycenter": "Salinas",
    "m_camp": "Poston",
    "pop": 1080,
    "lastaddress_lat": 36.9206,
    "lastaddress_lng": -121.7706,
    "m_camp_lat": 34.15,
    "m_camp_lng": -114.2833
  },
  {
    "lastaddress": "Los Angeles",
    "m_originalstate": "CA",
    "w_assemblycenter": "Santa Anita",
    "m_camp": "Gilariver",
    "pop": 931,
    "lastaddress_lat": 34.1139,
    "lastaddress_lng": -118.4068,
    "m_camp_lat": 32.1667,
    "m_camp_lng": -111.8667
  },
  {
    "lastaddress": "Torrance",
    "m_originalstate": "CA",
    "w_assemblycenter": "Santa Anita",
    "m_camp": "Rohwer",
    "pop": 898,
    "lastaddress_lat": 33.8346,
    "lastaddress_lng": -118.3417,
    "m_camp_lat": 33.75,
    "m_camp_lng": -91.2667
  },
  {
    "lastaddress": "Los Angeles",
    "m_originalstate": "CA",
    "w_assemblycenter": "Santa Anita",
    "m_camp": "Jerome",
    "pop": 885,
    "lastaddress_lat": 34.1139,
    "lastaddress_lng": -118.4068,
    "m_camp_lat": 33.3833,
    "m_camp_lng": -91.4667
  },
  {
    "lastaddress": "Lodi",
    "m_originalstate": "CA",
    "w_assemblycenter": "Stockton",
    "m_camp": "Rohwer",
    "pop": 882,
    "lastaddress_lat": 38.1218,
    "lastaddress_lng": -121.2932,
    "m_camp_lat": 33.75,
    "m_camp_lng": -91.2667
  },
  {
    "lastaddress": "Tulare",
    "m_originalstate": "CA",
    "w_assemblycenter": "Tulare",
    "m_camp": "Gilariver",
    "pop": 863,
    "lastaddress_lat": 36.1996,
    "lastaddress_lng": -119.34,
    "m_camp_lat": 32.1667,
    "m_camp_lng": -111.8667
  },
  {
    "lastaddress": "South Gate",
    "m_originalstate": "CA",
    "w_assemblycenter": "Santa Anita",
    "m_camp": "Jerome",
    "pop": 848,
    "lastaddress_lat": 33.9448,
    "lastaddress_lng": -118.1926,
    "m_camp_lat": 33.3833,
    "m_camp_lng": -91.4667
  },
  {
    "lastaddress": "Sunnyvale",
    "m_originalstate": "CA",
    "w_assemblycenter": "Santa Anita",
    "m_camp": "Heartmountain",
    "pop": 837,
    "lastaddress_lat": 37.3836,
    "lastaddress_lng": -122.0256,
    "m_camp_lat": 44.5167,
    "m_camp_lng": -109.05
  },
  {
    "lastaddress": "Tacoma",
    "m_originalstate": "WA",
    "w_assemblycenter": "Pinedale",
    "m_camp": "Tulelake",
    "pop": 834,
    "lastaddress_lat": 47.2431,
    "lastaddress_lng": -122.4531,
    "m_camp_lat": 41.8833,
    "m_camp_lng": -121.3667
  },
  {
    "lastaddress": "El Centro",
    "m_originalstate": "CA",
    "w_assemblycenter": "None",
    "m_camp": "Poston",
    "pop": 832,
    "lastaddress_lat": 32.7867,
    "lastaddress_lng": -115.5586,
    "m_camp_lat": 34.15,
    "m_camp_lng": -114.2833
  },
  {
    "lastaddress": "South Gate",
    "m_originalstate": "CA",
    "w_assemblycenter": "Manzanar",
    "m_camp": "Manzanar",
    "pop": 823,
    "lastaddress_lat": 33.9448,
    "lastaddress_lng": -118.1926,
    "m_camp_lat": 36.7333,
    "m_camp_lng": -118.0667
  },
  {
    "lastaddress": "South Gate",
    "m_originalstate": "CA",
    "w_assemblycenter": "Tulare",
    "m_camp": "Gilariver",
    "pop": 791,
    "lastaddress_lat": 33.9448,
    "lastaddress_lng": -118.1926,
    "m_camp_lat": 32.1667,
    "m_camp_lng": -111.8667
  },
  {
    "lastaddress": "Woodlake",
    "m_originalstate": "CA",
    "w_assemblycenter": "None",
    "m_camp": "Poston",
    "pop": 760,
    "lastaddress_lat": 36.4124,
    "lastaddress_lng": -119.0999,
    "m_camp_lat": 34.15,
    "m_camp_lng": -114.2833
  },
  {
    "lastaddress": "San Jose",
    "m_originalstate": "CA",
    "w_assemblycenter": "Santa Anita",
    "m_camp": "Heartmountain",
    "pop": 756,
    "lastaddress_lat": 37.3019,
    "lastaddress_lng": -121.8486,
    "m_camp_lat": 44.5167,
    "m_camp_lng": -109.05
  },
  {
    "lastaddress": "Los Angeles",
    "m_originalstate": "CA",
    "w_assemblycenter": "Turlock",
    "m_camp": "Gilariver",
    "pop": 727,
    "lastaddress_lat": 34.1139,
    "lastaddress_lng": -118.4068,
    "m_camp_lat": 32.1667,
    "m_camp_lng": -111.8667
  },
  {
    "lastaddress": "Vacaville",
    "m_originalstate": "CA",
    "w_assemblycenter": "Turlock",
    "m_camp": "Gilariver",
    "pop": 673,
    "lastaddress_lat": 38.359,
    "lastaddress_lng": -121.968,
    "m_camp_lat": 32.1667,
    "m_camp_lng": -111.8667
  },
  {
    "lastaddress": "Torrance",
    "m_originalstate": "CA",
    "w_assemblycenter": "Santa Anita",
    "m_camp": "Jerome",
    "pop": 664,
    "lastaddress_lat": 33.8346,
    "lastaddress_lng": -118.3417,
    "m_camp_lat": 33.3833,
    "m_camp_lng": -91.4667
  },
  {
    "lastaddress": "San Diego",
    "m_originalstate": "CA",
    "w_assemblycenter": "Santa Anita",
    "m_camp": "Poston",
    "pop": 661,
    "lastaddress_lat": 32.8312,
    "lastaddress_lng": -117.1225,
    "m_camp_lat": 34.15,
    "m_camp_lng": -114.2833
  },
  {
    "lastaddress": "San Francisco",
    "m_originalstate": "CA",
    "w_assemblycenter": "Pomona",
    "m_camp": "Heartmountain",
    "pop": 640,
    "lastaddress_lat": 37.7562,
    "lastaddress_lng": -122.443,
    "m_camp_lat": 44.5167,
    "m_camp_lng": -109.05
  },
  {
    "lastaddress": "Lindsay",
    "m_originalstate": "CA",
    "w_assemblycenter": "None",
    "m_camp": "Poston",
    "pop": 613,
    "lastaddress_lat": 36.2082,
    "lastaddress_lng": -119.0897,
    "m_camp_lat": 34.15,
    "m_camp_lng": -114.2833
  },
  {
    "lastaddress": "Whittier",
    "m_originalstate": "CA",
    "w_assemblycenter": "Santa Anita",
    "m_camp": "Rohwer",
    "pop": 595,
    "lastaddress_lat": 33.9678,
    "lastaddress_lng": -118.0188,
    "m_camp_lat": 33.75,
    "m_camp_lng": -91.2667
  },
  {
    "lastaddress": "Tulare",
    "m_originalstate": "CA",
    "w_assemblycenter": "None",
    "m_camp": "Poston",
    "pop": 587,
    "lastaddress_lat": 36.1996,
    "lastaddress_lng": -119.34,
    "m_camp_lat": 34.15,
    "m_camp_lng": -114.2833
  },
  {
    "lastaddress": "Isleton",
    "m_originalstate": "CA",
    "w_assemblycenter": "Fresno",
    "m_camp": "Jerome",
    "pop": 562,
    "lastaddress_lat": 38.1617,
    "lastaddress_lng": -121.6051,
    "m_camp_lat": 33.3833,
    "m_camp_lng": -91.4667
  },
  {
    "lastaddress": "Isleton",
    "m_originalstate": "CA",
    "w_assemblycenter": "Sacramento (Walerga)",
    "m_camp": "Tulelake",
    "pop": 552,
    "lastaddress_lat": 38.1617,
    "lastaddress_lng": -121.6051,
    "m_camp_lat": 41.8833,
    "m_camp_lng": -121.3667
  },
  {
    "lastaddress": "Torrance",
    "m_originalstate": "CA",
    "w_assemblycenter": "Manzanar",
    "m_camp": "Manzanar",
    "pop": 550,
    "lastaddress_lat": 33.8346,
    "lastaddress_lng": -118.3417,
    "m_camp_lat": 36.7333,
    "m_camp_lng": -118.0667
  },
  {
    "lastaddress": "Tukwila",
    "m_originalstate": "WA",
    "w_assemblycenter": "Pinedale",
    "m_camp": "Tulelake",
    "pop": 549,
    "lastaddress_lat": 47.4749,
    "lastaddress_lng": -122.2727,
    "m_camp_lat": 41.8833,
    "m_camp_lng": -121.3667
  },
  {
    "lastaddress": "Walnut Creek",
    "m_originalstate": "CA",
    "w_assemblycenter": "Turlock",
    "m_camp": "Gilariver",
    "pop": 549,
    "lastaddress_lat": 37.9024,
    "lastaddress_lng": -122.0398,
    "m_camp_lat": 32.1667,
    "m_camp_lng": -111.8667
  },
  {
    "lastaddress": "Pleasanton",
    "m_originalstate": "CA",
    "w_assemblycenter": "Tanforan",
    "m_camp": "Topaz",
    "pop": 543,
    "lastaddress_lat": 37.6663,
    "lastaddress_lng": -121.8805,
    "m_camp_lat": 39.3833,
    "m_camp_lng": -112.7167
  },
  {
    "lastaddress": "Zillah",
    "m_originalstate": "WA",
    "w_assemblycenter": "Portland",
    "m_camp": "Heartmountain",
    "pop": 543,
    "lastaddress_lat": 46.4084,
    "lastaddress_lng": -120.2725,
    "m_camp_lat": 44.5167,
    "m_camp_lng": -109.05
  },
  {
    "lastaddress": "San Francisco",
    "m_originalstate": "CA",
    "w_assemblycenter": "Santa Anita",
    "m_camp": "Topaz",
    "pop": 539,
    "lastaddress_lat": 37.7562,
    "lastaddress_lng": -122.443,
    "m_camp_lat": 39.3833,
    "m_camp_lng": -112.7167
  },
  {
    "lastaddress": "Oceanside",
    "m_originalstate": "CA",
    "w_assemblycenter": "None",
    "m_camp": "Poston",
    "pop": 529,
    "lastaddress_lat": 33.2247,
    "lastaddress_lng": -117.3083,
    "m_camp_lat": 34.15,
    "m_camp_lng": -114.2833
  },
  {
    "lastaddress": "Westmorland",
    "m_originalstate": "CA",
    "w_assemblycenter": "None",
    "m_camp": "Poston",
    "pop": 528,
    "lastaddress_lat": 33.0389,
    "lastaddress_lng": -115.6223,
    "m_camp_lat": 34.15,
    "m_camp_lng": -114.2833
  },
  {
    "lastaddress": "Whittier",
    "m_originalstate": "CA",
    "w_assemblycenter": "Tulare",
    "m_camp": "Gilariver",
    "pop": 526,
    "lastaddress_lat": 33.9678,
    "lastaddress_lng": -118.0188,
    "m_camp_lat": 32.1667,
    "m_camp_lng": -111.8667
  },
  {
    "lastaddress": "Selma",
    "m_originalstate": "CA",
    "w_assemblycenter": "None",
    "m_camp": "Gilariver",
    "pop": 520,
    "lastaddress_lat": 36.5715,
    "lastaddress_lng": -119.6143,
    "m_camp_lat": 32.1667,
    "m_camp_lng": -111.8667
  },
  {
    "lastaddress": "Sacramento",
    "m_originalstate": "CA",
    "w_assemblycenter": "Marysville (Arboga)",
    "m_camp": "Tulelake",
    "pop": 517,
    "lastaddress_lat": 38.5667,
    "lastaddress_lng": -121.4683,
    "m_camp_lat": 41.8833,
    "m_camp_lng": -121.3667
  },
  {
    "lastaddress": "Manteca",
    "m_originalstate": "CA",
    "w_assemblycenter": "Stockton",
    "m_camp": "Rohwer",
    "pop": 515,
    "lastaddress_lat": 37.7927,
    "lastaddress_lng": -121.2264,
    "m_camp_lat": 33.75,
    "m_camp_lng": -91.2667
  },
  {
    "lastaddress": "Santa Ana",
    "m_originalstate": "CA",
    "w_assemblycenter": "None",
    "m_camp": "Poston",
    "pop": 514,
    "lastaddress_lat": 33.7366,
    "lastaddress_lng": -117.8819,
    "m_camp_lat": 34.15,
    "m_camp_lng": -114.2833
  },
  {
    "lastaddress": "Torrance",
    "m_originalstate": "CA",
    "w_assemblycenter": "Tulare",
    "m_camp": "Gilariver",
    "pop": 513,
    "lastaddress_lat": 33.8346,
    "lastaddress_lng": -118.3417,
    "m_camp_lat": 32.1667,
    "m_camp_lng": -111.8667
  },
  {
    "lastaddress": "San Mateo",
    "m_originalstate": "CA",
    "w_assemblycenter": "Tanforan",
    "m_camp": "Topaz",
    "pop": 509,
    "lastaddress_lat": 37.5521,
    "lastaddress_lng": -122.3122,
    "m_camp_lat": 39.3833,
    "m_camp_lng": -112.7167
  },
  {
    "lastaddress": "Tustin",
    "m_originalstate": "CA",
    "w_assemblycenter": "None",
    "m_camp": "Poston",
    "pop": 500,
    "lastaddress_lat": 33.7309,
    "lastaddress_lng": -117.8106,
    "m_camp_lat": 34.15,
    "m_camp_lng": -114.2833
  },
  {
    "lastaddress": "Spokane",
    "m_originalstate": "WA",
    "w_assemblycenter": "Pinedale",
    "m_camp": "Tulelake",
    "pop": 487,
    "lastaddress_lat": 47.6671,
    "lastaddress_lng": -117.433,
    "m_camp_lat": 41.8833,
    "m_camp_lng": -121.3667
  },
  {
    "lastaddress": "Sacramento",
    "m_originalstate": "CA",
    "w_assemblycenter": "Pinedale",
    "m_camp": "Poston",
    "pop": 485,
    "lastaddress_lat": 38.5667,
    "lastaddress_lng": -121.4683,
    "m_camp_lat": 34.15,
    "m_camp_lng": -114.2833
  },
  {
    "lastaddress": "Seattle",
    "m_originalstate": "WA",
    "w_assemblycenter": "Pinedale",
    "m_camp": "Tulelake",
    "pop": 480,
    "lastaddress_lat": 47.6211,
    "lastaddress_lng": -122.3244,
    "m_camp_lat": 41.8833,
    "m_camp_lng": -121.3667
  },
  {
    "lastaddress": "Oahu",
    "m_originalstate": "HI",
    "w_assemblycenter": "None",
    "m_camp": "Jerome",
    "pop": 439,
    "lastaddress_lat": 21.473,
    "lastaddress_lng": -157.9868,
    "m_camp_lat": 33.3833,
    "m_camp_lng": -91.4667
  },
  {
    "lastaddress": "Stockton",
    "m_originalstate": "CA",
    "w_assemblycenter": "Turlock",
    "m_camp": "Gilariver",
    "pop": 431,
    "lastaddress_lat": 37.9765,
    "lastaddress_lng": -121.3109,
    "m_camp_lat": 32.1667,
    "m_camp_lng": -111.8667
  },
  {
    "lastaddress": "Marysville",
    "m_originalstate": "CA",
    "w_assemblycenter": "None",
    "m_camp": "Tulelake",
    "pop": 429,
    "lastaddress_lat": 39.1518,
    "lastaddress_lng": -121.5835,
    "m_camp_lat": 41.8833,
    "m_camp_lng": -121.3667
  },
  {
    "lastaddress": "Santa Paula",
    "m_originalstate": "CA",
    "w_assemblycenter": "Tulare",
    "m_camp": "Gilariver",
    "pop": 426,
    "lastaddress_lat": 34.3521,
    "lastaddress_lng": -119.0698,
    "m_camp_lat": 32.1667,
    "m_camp_lng": -111.8667
  },
  {
    "lastaddress": "Santa Maria",
    "m_originalstate": "CA",
    "w_assemblycenter": "Tulare",
    "m_camp": "Gilariver",
    "pop": 416,
    "lastaddress_lat": 34.9334,
    "lastaddress_lng": -120.4432,
    "m_camp_lat": 32.1667,
    "m_camp_lng": -111.8667
  },
  {
    "lastaddress": "Signal Hill",
    "m_originalstate": "CA",
    "w_assemblycenter": "Santa Anita",
    "m_camp": "Rohwer",
    "pop": 414,
    "lastaddress_lat": 33.8029,
    "lastaddress_lng": -118.1681,
    "m_camp_lat": 33.75,
    "m_camp_lng": -91.2667
  },
  {
    "lastaddress": "Los Banos",
    "m_originalstate": "CA",
    "w_assemblycenter": "Merced",
    "m_camp": "Amache",
    "pop": 408,
    "lastaddress_lat": 37.063,
    "lastaddress_lng": -120.8406,
    "m_camp_lat": 38.05,
    "m_camp_lng": -102.3
  },
  {
    "lastaddress": "Sacramento",
    "m_originalstate": "CA",
    "w_assemblycenter": "Fresno",
    "m_camp": "Jerome",
    "pop": 401,
    "lastaddress_lat": 38.5667,
    "lastaddress_lng": -121.4683,
    "m_camp_lat": 33.3833,
    "m_camp_lng": -91.4667
  },
  {
    "lastaddress": "Wilkeson",
    "m_originalstate": "WA",
    "w_assemblycenter": "Puyallup",
    "m_camp": "Minidoka",
    "pop": 392,
    "lastaddress_lat": 47.1034,
    "lastaddress_lng": -122.0495,
    "m_camp_lat": 42.6667,
    "m_camp_lng": -114.2333
  },
  {
    "lastaddress": "Isleton",
    "m_originalstate": "CA",
    "w_assemblycenter": "Merced",
    "m_camp": "Amache",
    "pop": 386,
    "lastaddress_lat": 38.1617,
    "lastaddress_lng": -121.6051,
    "m_camp_lat": 38.05,
    "m_camp_lng": -102.3
  },
  {
    "lastaddress": "Signal Hill",
    "m_originalstate": "CA",
    "w_assemblycenter": "Pomona",
    "m_camp": "Heartmountain",
    "pop": 380,
    "lastaddress_lat": 33.8029,
    "lastaddress_lng": -118.1681,
    "m_camp_lat": 44.5167,
    "m_camp_lng": -109.05
  },
  {
    "lastaddress": "Newport Beach",
    "m_originalstate": "CA",
    "w_assemblycenter": "None",
    "m_camp": "Poston",
    "pop": 376,
    "lastaddress_lat": 33.6151,
    "lastaddress_lng": -117.8669,
    "m_camp_lat": 34.15,
    "m_camp_lng": -114.2833
  },
  {
    "lastaddress": "San Joaquin",
    "m_originalstate": "CA",
    "w_assemblycenter": "Fresno",
    "m_camp": "Jerome",
    "pop": 374,
    "lastaddress_lat": 36.6057,
    "lastaddress_lng": -120.1897,
    "m_camp_lat": 33.3833,
    "m_camp_lng": -91.4667
  },
  {
    "lastaddress": "Winters",
    "m_originalstate": "CA",
    "w_assemblycenter": "Merced",
    "m_camp": "Amache",
    "pop": 372,
    "lastaddress_lat": 38.532,
    "lastaddress_lng": -121.9781,
    "m_camp_lat": 38.05,
    "m_camp_lng": -102.3
  },
  {
    "lastaddress": "Isleton",
    "m_originalstate": "CA",
    "w_assemblycenter": "Turlock",
    "m_camp": "Gilariver",
    "pop": 360,
    "lastaddress_lat": 38.1617,
    "lastaddress_lng": -121.6051,
    "m_camp_lat": 32.1667,
    "m_camp_lng": -111.8667
  },
  {
    "lastaddress": "Torrance",
    "m_originalstate": "CA",
    "w_assemblycenter": "Pomona",
    "m_camp": "Heartmountain",
    "pop": 354,
    "lastaddress_lat": 33.8346,
    "lastaddress_lng": -118.3417,
    "m_camp_lat": 44.5167,
    "m_camp_lng": -109.05
  },
  {
    "lastaddress": "Los Angeles",
    "m_originalstate": "CA",
    "w_assemblycenter": "Tulare",
    "m_camp": "Gilariver",
    "pop": 352,
    "lastaddress_lat": 34.1139,
    "lastaddress_lng": -118.4068,
    "m_camp_lat": 32.1667,
    "m_camp_lng": -111.8667
  },
  {
    "lastaddress": "Visalia",
    "m_originalstate": "CA",
    "w_assemblycenter": "Fresno",
    "m_camp": "Jerome",
    "pop": 349,
    "lastaddress_lat": 36.3276,
    "lastaddress_lng": -119.3269,
    "m_camp_lat": 33.3833,
    "m_camp_lng": -91.4667
  },
  {
    "lastaddress": "Tacoma",
    "m_originalstate": "WA",
    "w_assemblycenter": "Puyallup",
    "m_camp": "Minidoka",
    "pop": 349,
    "lastaddress_lat": 47.2431,
    "lastaddress_lng": -122.4531,
    "m_camp_lat": 42.6667,
    "m_camp_lng": -114.2333
  },
  {
    "lastaddress": "Taft",
    "m_originalstate": "CA",
    "w_assemblycenter": "None",
    "m_camp": "Poston",
    "pop": 342,
    "lastaddress_lat": 35.1267,
    "lastaddress_lng": -119.4242,
    "m_camp_lat": 34.15,
    "m_camp_lng": -114.2833
  },
  {
    "lastaddress": "Sonoma",
    "m_originalstate": "CA",
    "w_assemblycenter": "Merced",
    "m_camp": "Amache",
    "pop": 332,
    "lastaddress_lat": 38.2902,
    "lastaddress_lng": -122.4598,
    "m_camp_lat": 38.05,
    "m_camp_lng": -102.3
  },
  {
    "lastaddress": "Turlock",
    "m_originalstate": "CA",
    "w_assemblycenter": "Merced",
    "m_camp": "Amache",
    "pop": 332,
    "lastaddress_lat": 37.5053,
    "lastaddress_lng": -120.8588,
    "m_camp_lat": 38.05,
    "m_camp_lng": -102.3
  },
  {
    "lastaddress": "Spokane",
    "m_originalstate": "WA",
    "w_assemblycenter": "Portland",
    "m_camp": "Tulelake",
    "pop": 328,
    "lastaddress_lat": 47.6671,
    "lastaddress_lng": -117.433,
    "m_camp_lat": 41.8833,
    "m_camp_lng": -121.3667
  },
  {
    "lastaddress": "Taft",
    "m_originalstate": "CA",
    "w_assemblycenter": "Fresno",
    "m_camp": "Jerome",
    "pop": 328,
    "lastaddress_lat": 35.1267,
    "lastaddress_lng": -119.4242,
    "m_camp_lat": 33.3833,
    "m_camp_lng": -91.4667
  },
  {
    "lastaddress": "Isleton",
    "m_originalstate": "CA",
    "w_assemblycenter": "Marysville (Arboga)",
    "m_camp": "Tulelake",
    "pop": 325,
    "lastaddress_lat": 38.1617,
    "lastaddress_lng": -121.6051,
    "m_camp_lat": 41.8833,
    "m_camp_lng": -121.3667
  },
  {
    "lastaddress": "Rocklin",
    "m_originalstate": "CA",
    "w_assemblycenter": "None",
    "m_camp": "Tulelake",
    "pop": 323,
    "lastaddress_lat": 38.8075,
    "lastaddress_lng": -121.2488,
    "m_camp_lat": 41.8833,
    "m_camp_lng": -121.3667
  },
  {
    "lastaddress": "San Joaquin",
    "m_originalstate": "CA",
    "w_assemblycenter": "None",
    "m_camp": "Poston",
    "pop": 322,
    "lastaddress_lat": 36.6057,
    "lastaddress_lng": -120.1897,
    "m_camp_lat": 34.15,
    "m_camp_lng": -114.2833
  },
  {
    "lastaddress": "Sunnyvale",
    "m_originalstate": "CA",
    "w_assemblycenter": "Salinas",
    "m_camp": "Poston",
    "pop": 313,
    "lastaddress_lat": 37.3836,
    "lastaddress_lng": -122.0256,
    "m_camp_lat": 34.15,
    "m_camp_lng": -114.2833
  },
  {
    "lastaddress": "Los Angeles",
    "m_originalstate": "CA",
    "w_assemblycenter": "None",
    "m_camp": "Gilariver",
    "pop": 306,
    "lastaddress_lat": 34.1139,
    "lastaddress_lng": -118.4068,
    "m_camp_lat": 32.1667,
    "m_camp_lng": -111.8667
  },
  {
    "lastaddress": "Bakersfield",
    "m_originalstate": "CA",
    "w_assemblycenter": "None",
    "m_camp": "Poston",
    "pop": 296,
    "lastaddress_lat": 35.3529,
    "lastaddress_lng": -119.0359,
    "m_camp_lat": 34.15,
    "m_camp_lng": -114.2833
  },
  {
    "lastaddress": "Spokane",
    "m_originalstate": "WA",
    "w_assemblycenter": "None",
    "m_camp": "Tulelake",
    "pop": 295,
    "lastaddress_lat": 47.6671,
    "lastaddress_lng": -117.433,
    "m_camp_lat": 41.8833,
    "m_camp_lng": -121.3667
  },
  {
    "lastaddress": "Santa Barbara",
    "m_originalstate": "CA",
    "w_assemblycenter": "Tulare",
    "m_camp": "Gilariver",
    "pop": 291,
    "lastaddress_lat": 34.4285,
    "lastaddress_lng": -119.7202,
    "m_camp_lat": 32.1667,
    "m_camp_lng": -111.8667
  },
  {
    "lastaddress": "San Jose",
    "m_originalstate": "CA",
    "w_assemblycenter": "Pomona",
    "m_camp": "Heartmountain",
    "pop": 287,
    "lastaddress_lat": 37.3019,
    "lastaddress_lng": -121.8486,
    "m_camp_lat": 44.5167,
    "m_camp_lng": -109.05
  },
  {
    "lastaddress": "San Jacinto",
    "m_originalstate": "CA",
    "w_assemblycenter": "None",
    "m_camp": "Poston",
    "pop": 270,
    "lastaddress_lat": 33.797,
    "lastaddress_lng": -116.9916,
    "m_camp_lat": 34.15,
    "m_camp_lng": -114.2833
  },
  {
    "lastaddress": "Yuba City",
    "m_originalstate": "CA",
    "w_assemblycenter": "Merced",
    "m_camp": "Amache",
    "pop": 267,
    "lastaddress_lat": 39.1357,
    "lastaddress_lng": -121.6381,
    "m_camp_lat": 38.05,
    "m_camp_lng": -102.3
  },
  {
    "lastaddress": "Winters",
    "m_originalstate": "CA",
    "w_assemblycenter": "None",
    "m_camp": "Tulelake",
    "pop": 256,
    "lastaddress_lat": 38.532,
    "lastaddress_lng": -121.9781,
    "m_camp_lat": 41.8833,
    "m_camp_lng": -121.3667
  },
  {
    "lastaddress": "San Juan",
    "m_originalstate": "CA",
    "w_assemblycenter": "Salinas",
    "m_camp": "Poston",
    "pop": 255,
    "lastaddress_lat": 33.5009,
    "lastaddress_lng": -117.6544,
    "m_camp_lat": 34.15,
    "m_camp_lng": -114.2833
  },
  {
    "lastaddress": "Woodland",
    "m_originalstate": "CA",
    "w_assemblycenter": "Merced",
    "m_camp": "Amache",
    "pop": 249,
    "lastaddress_lat": 38.6712,
    "lastaddress_lng": -121.75,
    "m_camp_lat": 38.05,
    "m_camp_lng": -102.3
  },
  {
    "lastaddress": "Isleton",
    "m_originalstate": "CA",
    "w_assemblycenter": "Manzanar",
    "m_camp": "Manzanar",
    "pop": 246,
    "lastaddress_lat": 38.1617,
    "lastaddress_lng": -121.6051,
    "m_camp_lat": 36.7333,
    "m_camp_lng": -118.0667
  },
  {
    "lastaddress": "Puyallup",
    "m_originalstate": "WA",
    "w_assemblycenter": "Puyallup",
    "m_camp": "Minidoka",
    "pop": 244,
    "lastaddress_lat": 47.1794,
    "lastaddress_lng": -122.2902,
    "m_camp_lat": 42.6667,
    "m_camp_lng": -114.2333
  },
  {
    "lastaddress": "West Covina",
    "m_originalstate": "CA",
    "w_assemblycenter": "Pomona",
    "m_camp": "Heartmountain",
    "pop": 239,
    "lastaddress_lat": 34.0555,
    "lastaddress_lng": -117.9112,
    "m_camp_lat": 44.5167,
    "m_camp_lng": -109.05
  },
  {
    "lastaddress": "Auburn",
    "m_originalstate": "CA",
    "w_assemblycenter": "None",
    "m_camp": "Tulelake",
    "pop": 231,
    "lastaddress_lat": 38.895,
    "lastaddress_lng": -121.0778,
    "m_camp_lat": 41.8833,
    "m_camp_lng": -121.3667
  },
  {
    "lastaddress": "Coronada",
    "m_originalstate": "CA",
    "w_assemblycenter": "Santa Anita",
    "m_camp": "Poston",
    "pop": 228,
    "lastaddress_lat": 32.664,
    "lastaddress_lng": -117.16,
    "m_camp_lat": 34.15,
    "m_camp_lng": -114.2833
  },
  {
    "lastaddress": "Port Orchard",
    "m_originalstate": "WA",
    "w_assemblycenter": "Manzanar",
    "m_camp": "Manzanar",
    "pop": 221,
    "lastaddress_lat": 47.5163,
    "lastaddress_lng": -122.661,
    "m_camp_lat": 36.7333,
    "m_camp_lng": -118.0667
  },
  {
    "lastaddress": "Seattle",
    "m_originalstate": "WA",
    "w_assemblycenter": "Puyallup",
    "m_camp": "Tulelake",
    "pop": 219,
    "lastaddress_lat": 47.6211,
    "lastaddress_lng": -122.3244,
    "m_camp_lat": 41.8833,
    "m_camp_lng": -121.3667
  },
  {
    "lastaddress": "Los Angeles",
    "m_originalstate": "CA",
    "w_assemblycenter": "Santa Anita",
    "m_camp": "Poston",
    "pop": 219,
    "lastaddress_lat": 34.1139,
    "lastaddress_lng": -118.4068,
    "m_camp_lat": 34.15,
    "m_camp_lng": -114.2833
  },
  {
    "lastaddress": "Hawaii",
    "m_originalstate": "HI",
    "w_assemblycenter": "None",
    "m_camp": "Jerome",
    "pop": 210,
    "lastaddress_lat": 19.566667,
    "lastaddress_lng": -155.5,
    "m_camp_lat": 33.3833,
    "m_camp_lng": -91.4667
  },
  {
    "lastaddress": "Fullerton",
    "m_originalstate": "CA",
    "w_assemblycenter": "None",
    "m_camp": "Poston",
    "pop": 209,
    "lastaddress_lat": 33.8841,
    "lastaddress_lng": -117.9279,
    "m_camp_lat": 34.15,
    "m_camp_lng": -114.2833
  },
  {
    "lastaddress": "Piedmont",
    "m_originalstate": "CA",
    "w_assemblycenter": "Tanforan",
    "m_camp": "Topaz",
    "pop": 205,
    "lastaddress_lat": 37.8226,
    "lastaddress_lng": -122.23,
    "m_camp_lat": 39.3833,
    "m_camp_lng": -112.7167
  },
  {
    "lastaddress": "Riverside",
    "m_originalstate": "CA",
    "w_assemblycenter": "None",
    "m_camp": "Poston",
    "pop": 204,
    "lastaddress_lat": 33.9381,
    "lastaddress_lng": -117.3948,
    "m_camp_lat": 34.15,
    "m_camp_lng": -114.2833
  },
  {
    "lastaddress": "Whittier",
    "m_originalstate": "CA",
    "w_assemblycenter": "Pomona",
    "m_camp": "Heartmountain",
    "pop": 197,
    "lastaddress_lat": 33.9678,
    "lastaddress_lng": -118.0188,
    "m_camp_lat": 44.5167,
    "m_camp_lng": -109.05
  },
  {
    "lastaddress": "Los Angeles",
    "m_originalstate": "CA",
    "w_assemblycenter": "None",
    "m_camp": "Manzanar",
    "pop": 193,
    "lastaddress_lat": 34.1139,
    "lastaddress_lng": -118.4068,
    "m_camp_lat": 36.7333,
    "m_camp_lng": -118.0667
  },
  {
    "lastaddress": "Signal Hill",
    "m_originalstate": "CA",
    "w_assemblycenter": "Santa Anita",
    "m_camp": "Jerome",
    "pop": 187,
    "lastaddress_lat": 33.8029,
    "lastaddress_lng": -118.1681,
    "m_camp_lat": 33.3833,
    "m_camp_lng": -91.4667
  },
  {
    "lastaddress": "Los Angeles",
    "m_originalstate": "CA",
    "w_assemblycenter": "Fresno",
    "m_camp": "Jerome",
    "pop": 186,
    "lastaddress_lat": 34.1139,
    "lastaddress_lng": -118.4068,
    "m_camp_lat": 33.3833,
    "m_camp_lng": -91.4667
  },
  {
    "lastaddress": "Petaluma",
    "m_originalstate": "CA",
    "w_assemblycenter": "Merced",
    "m_camp": "Amache",
    "pop": 184,
    "lastaddress_lat": 38.2423,
    "lastaddress_lng": -122.6267,
    "m_camp_lat": 38.05,
    "m_camp_lng": -102.3
  },
  {
    "lastaddress": "Modesto",
    "m_originalstate": "CA",
    "w_assemblycenter": "Merced",
    "m_camp": "Amache",
    "pop": 183,
    "lastaddress_lat": 37.6374,
    "lastaddress_lng": -121.0028,
    "m_camp_lat": 38.05,
    "m_camp_lng": -102.3
  },
  {
    "lastaddress": "Tehachapi",
    "m_originalstate": "CA",
    "w_assemblycenter": "None",
    "m_camp": "Poston",
    "pop": 181,
    "lastaddress_lat": 35.1274,
    "lastaddress_lng": -118.4749,
    "m_camp_lat": 34.15,
    "m_camp_lng": -114.2833
  },
  {
    "lastaddress": "El Cajon",
    "m_originalstate": "CA",
    "w_assemblycenter": "Santa Anita",
    "m_camp": "Poston",
    "pop": 178,
    "lastaddress_lat": 32.8017,
    "lastaddress_lng": -116.9605,
    "m_camp_lat": 34.15,
    "m_camp_lng": -114.2833
  },
  {
    "lastaddress": "El Cajon",
    "m_originalstate": "CA",
    "w_assemblycenter": "None",
    "m_camp": "Poston",
    "pop": 178,
    "lastaddress_lat": 32.8017,
    "lastaddress_lng": -116.9605,
    "m_camp_lat": 34.15,
    "m_camp_lng": -114.2833
  },
  {
    "lastaddress": "Isleton",
    "m_originalstate": "CA",
    "w_assemblycenter": "Pinedale",
    "m_camp": "Poston",
    "pop": 172,
    "lastaddress_lat": 38.1617,
    "lastaddress_lng": -121.6051,
    "m_camp_lat": 34.15,
    "m_camp_lng": -114.2833
  },
  {
    "lastaddress": "San Leandro",
    "m_originalstate": "CA",
    "w_assemblycenter": "Tanforan",
    "m_camp": "Topaz",
    "pop": 170,
    "lastaddress_lat": 37.7071,
    "lastaddress_lng": -122.1601,
    "m_camp_lat": 39.3833,
    "m_camp_lng": -112.7167
  },
  {
    "lastaddress": "Williams",
    "m_originalstate": "CA",
    "w_assemblycenter": "Merced",
    "m_camp": "Amache",
    "pop": 169,
    "lastaddress_lat": 39.154722,
    "lastaddress_lng": -122.149444,
    "m_camp_lat": 38.05,
    "m_camp_lng": -102.3
  },
  {
    "lastaddress": "Oahu",
    "m_originalstate": "HI",
    "w_assemblycenter": "None",
    "m_camp": "Topaz",
    "pop": 167,
    "lastaddress_lat": 21.473,
    "lastaddress_lng": -157.9868,
    "m_camp_lat": 39.3833,
    "m_camp_lng": -112.7167
  },
  {
    "lastaddress": "South Gate",
    "m_originalstate": "CA",
    "w_assemblycenter": "Santa Anita",
    "m_camp": "Rohwer",
    "pop": 166,
    "lastaddress_lat": 33.9448,
    "lastaddress_lng": -118.1926,
    "m_camp_lat": 33.75,
    "m_camp_lng": -91.2667
  },
  {
    "lastaddress": "Arroyo Grande",
    "m_originalstate": "CA",
    "w_assemblycenter": "Tulare",
    "m_camp": "Gilariver",
    "pop": 163,
    "lastaddress_lat": 35.1241,
    "lastaddress_lng": -120.5845,
    "m_camp_lat": 32.1667,
    "m_camp_lng": -111.8667
  },
  {
    "lastaddress": "Hollister",
    "m_originalstate": "CA",
    "w_assemblycenter": "Salinas",
    "m_camp": "Poston",
    "pop": 163,
    "lastaddress_lat": 36.8563,
    "lastaddress_lng": -121.3981,
    "m_camp_lat": 34.15,
    "m_camp_lng": -114.2833
  },
  {
    "lastaddress": "Sacramento",
    "m_originalstate": "CA",
    "w_assemblycenter": "None",
    "m_camp": "Tulelake",
    "pop": 162,
    "lastaddress_lat": 38.5667,
    "lastaddress_lng": -121.4683,
    "m_camp_lat": 41.8833,
    "m_camp_lng": -121.3667
  },
  {
    "lastaddress": "Stockton",
    "m_originalstate": "CA",
    "w_assemblycenter": "Stockton",
    "m_camp": "Gilariver",
    "pop": 162,
    "lastaddress_lat": 37.9765,
    "lastaddress_lng": -121.3109,
    "m_camp_lat": 32.1667,
    "m_camp_lng": -111.8667
  },
  {
    "lastaddress": "Lawndale",
    "m_originalstate": "CA",
    "w_assemblycenter": "Tanforan",
    "m_camp": "Topaz",
    "pop": 162,
    "lastaddress_lat": 33.8884,
    "lastaddress_lng": -118.3531,
    "m_camp_lat": 39.3833,
    "m_camp_lng": -112.7167
  },
  {
    "lastaddress": "Madera",
    "m_originalstate": "CA",
    "w_assemblycenter": "Fresno",
    "m_camp": "Jerome",
    "pop": 155,
    "lastaddress_lat": 36.9631,
    "lastaddress_lng": -120.0782,
    "m_camp_lat": 33.3833,
    "m_camp_lng": -91.4667
  },
  {
    "lastaddress": "Fresno",
    "m_originalstate": "CA",
    "w_assemblycenter": "None",
    "m_camp": "Gilariver",
    "pop": 151,
    "lastaddress_lat": 36.7831,
    "lastaddress_lng": -119.7941,
    "m_camp_lat": 32.1667,
    "m_camp_lng": -111.8667
  },
  {
    "lastaddress": "Palo Alto",
    "m_originalstate": "CA",
    "w_assemblycenter": "Santa Anita",
    "m_camp": "Heartmountain",
    "pop": 143,
    "lastaddress_lat": 37.3913,
    "lastaddress_lng": -122.1468,
    "m_camp_lat": 44.5167,
    "m_camp_lng": -109.05
  },
  {
    "lastaddress": "Livermore",
    "m_originalstate": "CA",
    "w_assemblycenter": "Tanforan",
    "m_camp": "Topaz",
    "pop": 142,
    "lastaddress_lat": 37.6862,
    "lastaddress_lng": -121.7608,
    "m_camp_lat": 39.3833,
    "m_camp_lng": -112.7167
  },
  {
    "lastaddress": "Lompoc",
    "m_originalstate": "CA",
    "w_assemblycenter": "Tulare",
    "m_camp": "Gilariver",
    "pop": 140,
    "lastaddress_lat": 34.6618,
    "lastaddress_lng": -120.4714,
    "m_camp_lat": 32.1667,
    "m_camp_lng": -111.8667
  },
  {
    "lastaddress": "Whittier",
    "m_originalstate": "CA",
    "w_assemblycenter": "Santa Anita",
    "m_camp": "Jerome",
    "pop": 139,
    "lastaddress_lat": 33.9678,
    "lastaddress_lng": -118.0188,
    "m_camp_lat": 33.3833,
    "m_camp_lng": -91.4667
  },
  {
    "lastaddress": "Gridley",
    "m_originalstate": "CA",
    "w_assemblycenter": "None",
    "m_camp": "Tulelake",
    "pop": 137,
    "lastaddress_lat": 39.3622,
    "lastaddress_lng": -121.6971,
    "m_camp_lat": 41.8833,
    "m_camp_lng": -121.3667
  },
  {
    "lastaddress": "Toppenish",
    "m_originalstate": "WA",
    "w_assemblycenter": "Portland",
    "m_camp": "Heartmountain",
    "pop": 136,
    "lastaddress_lat": 46.3806,
    "lastaddress_lng": -120.3123,
    "m_camp_lat": 44.5167,
    "m_camp_lng": -109.05
  },
  {
    "lastaddress": "City_Unregistered",
    "m_originalstate": "Not Found",
    "w_assemblycenter": "None",
    "m_camp": "Poston",
    "pop": 133,
    "lastaddress_lat": 0,
    "lastaddress_lng": 0,
    "m_camp_lat": 34.15,
    "m_camp_lng": -114.2833
  },
  {
    "lastaddress": "Maui",
    "m_originalstate": "HI",
    "w_assemblycenter": "Puyallup",
    "m_camp": "Minidoka",
    "pop": 131,
    "lastaddress_lat": 20.8,
    "lastaddress_lng": -156.333333,
    "m_camp_lat": 42.6667,
    "m_camp_lng": -114.2333
  },
  {
    "lastaddress": "Signal Hill",
    "m_originalstate": "CA",
    "w_assemblycenter": "Tulare",
    "m_camp": "Gilariver",
    "pop": 130,
    "lastaddress_lat": 33.8029,
    "lastaddress_lng": -118.1681,
    "m_camp_lat": 32.1667,
    "m_camp_lng": -111.8667
  },
  {
    "lastaddress": "Soledad",
    "m_originalstate": "CA",
    "w_assemblycenter": "Salinas",
    "m_camp": "Poston",
    "pop": 130,
    "lastaddress_lat": 36.4432,
    "lastaddress_lng": -121.3426,
    "m_camp_lat": 34.15,
    "m_camp_lng": -114.2833
  },
  {
    "lastaddress": "Riverbank",
    "m_originalstate": "CA",
    "w_assemblycenter": "Merced",
    "m_camp": "Amache",
    "pop": 130,
    "lastaddress_lat": 37.7268,
    "lastaddress_lng": -120.9402,
    "m_camp_lat": 38.05,
    "m_camp_lng": -102.3
  },
  {
    "lastaddress": "Manteca",
    "m_originalstate": "CA",
    "w_assemblycenter": "Manzanar",
    "m_camp": "Manzanar",
    "pop": 129,
    "lastaddress_lat": 37.7927,
    "lastaddress_lng": -121.2264,
    "m_camp_lat": 36.7333,
    "m_camp_lng": -118.0667
  },
  {
    "lastaddress": "Santa Rosa",
    "m_originalstate": "CA",
    "w_assemblycenter": "Merced",
    "m_camp": "Amache",
    "pop": 128,
    "lastaddress_lat": 38.4458,
    "lastaddress_lng": -122.7067,
    "m_camp_lat": 38.05,
    "m_camp_lng": -102.3
  },
  {
    "lastaddress": "Yakima",
    "m_originalstate": "WA",
    "w_assemblycenter": "Portland",
    "m_camp": "Heartmountain",
    "pop": 124,
    "lastaddress_lat": 46.5923,
    "lastaddress_lng": -120.5496,
    "m_camp_lat": 44.5167,
    "m_camp_lng": -109.05
  },
  {
    "lastaddress": "Calexico",
    "m_originalstate": "CA",
    "w_assemblycenter": "None",
    "m_camp": "Poston",
    "pop": 124,
    "lastaddress_lat": 32.6849,
    "lastaddress_lng": -115.4944,
    "m_camp_lat": 34.15,
    "m_camp_lng": -114.2833
  },
  {
    "lastaddress": "Manteca",
    "m_originalstate": "CA",
    "w_assemblycenter": "Turlock",
    "m_camp": "Gilariver",
    "pop": 121,
    "lastaddress_lat": 37.7927,
    "lastaddress_lng": -121.2264,
    "m_camp_lat": 32.1667,
    "m_camp_lng": -111.8667
  },
  {
    "lastaddress": "Sacramento",
    "m_originalstate": "CA",
    "w_assemblycenter": "Manzanar",
    "m_camp": "Manzanar",
    "pop": 121,
    "lastaddress_lat": 38.5667,
    "lastaddress_lng": -121.4683,
    "m_camp_lat": 36.7333,
    "m_camp_lng": -118.0667
  },
  {
    "lastaddress": "Winters",
    "m_originalstate": "CA",
    "w_assemblycenter": "Turlock",
    "m_camp": "Gilariver",
    "pop": 119,
    "lastaddress_lat": 38.532,
    "lastaddress_lng": -121.9781,
    "m_camp_lat": 32.1667,
    "m_camp_lng": -111.8667
  },
  {
    "lastaddress": "San Bernardino",
    "m_originalstate": "CA",
    "w_assemblycenter": "None",
    "m_camp": "Poston",
    "pop": 119,
    "lastaddress_lat": 34.1417,
    "lastaddress_lng": -117.2946,
    "m_camp_lat": 34.15,
    "m_camp_lng": -114.2833
  },
  {
    "lastaddress": "Santa Clara",
    "m_originalstate": "CA",
    "w_assemblycenter": "Pomona",
    "m_camp": "Heartmountain",
    "pop": 118,
    "lastaddress_lat": 37.3645,
    "lastaddress_lng": -121.968,
    "m_camp_lat": 44.5167,
    "m_camp_lng": -109.05
  },
  {
    "lastaddress": "Oakland",
    "m_originalstate": "CA",
    "w_assemblycenter": "Turlock",
    "m_camp": "Gilariver",
    "pop": 117,
    "lastaddress_lat": 37.7903,
    "lastaddress_lng": -122.2165,
    "m_camp_lat": 32.1667,
    "m_camp_lng": -111.8667
  },
  {
    "lastaddress": "Phoenix",
    "m_originalstate": "AZ",
    "w_assemblycenter": "Mayer",
    "m_camp": "Poston",
    "pop": 115,
    "lastaddress_lat": 33.5722,
    "lastaddress_lng": -112.0891,
    "m_camp_lat": 34.15,
    "m_camp_lng": -114.2833
  },
  {
    "lastaddress": "South Gate",
    "m_originalstate": "CA",
    "w_assemblycenter": "Santa Anita",
    "m_camp": "Gilariver",
    "pop": 113,
    "lastaddress_lat": 33.9448,
    "lastaddress_lng": -118.1926,
    "m_camp_lat": 32.1667,
    "m_camp_lng": -111.8667
  },
  {
    "lastaddress": "West Covina",
    "m_originalstate": "CA",
    "w_assemblycenter": "None",
    "m_camp": "Poston",
    "pop": 112,
    "lastaddress_lat": 34.0555,
    "lastaddress_lng": -117.9112,
    "m_camp_lat": 34.15,
    "m_camp_lng": -114.2833
  },
  {
    "lastaddress": "Lemoore",
    "m_originalstate": "CA",
    "w_assemblycenter": "Fresno",
    "m_camp": "Jerome",
    "pop": 111,
    "lastaddress_lat": 36.2949,
    "lastaddress_lng": -119.7983,
    "m_camp_lat": 33.3833,
    "m_camp_lng": -91.4667
  },
  {
    "lastaddress": "Stockton",
    "m_originalstate": "CA",
    "w_assemblycenter": "Sacramento (Walerga)",
    "m_camp": "Tulelake",
    "pop": 110,
    "lastaddress_lat": 37.9765,
    "lastaddress_lng": -121.3109,
    "m_camp_lat": 41.8833,
    "m_camp_lng": -121.3667
  },
  {
    "lastaddress": "Oakland",
    "m_originalstate": "CA",
    "w_assemblycenter": "None",
    "m_camp": "Tulelake",
    "pop": 108,
    "lastaddress_lat": 37.7903,
    "lastaddress_lng": -122.2165,
    "m_camp_lat": 41.8833,
    "m_camp_lng": -121.3667
  },
  {
    "lastaddress": "Whittier",
    "m_originalstate": "CA",
    "w_assemblycenter": "Manzanar",
    "m_camp": "Manzanar",
    "pop": 107,
    "lastaddress_lat": 33.9678,
    "lastaddress_lng": -118.0188,
    "m_camp_lat": 36.7333,
    "m_camp_lng": -118.0667
  },
  {
    "lastaddress": "Morgan Hill",
    "m_originalstate": "CA",
    "w_assemblycenter": "Santa Anita",
    "m_camp": "Heartmountain",
    "pop": 106,
    "lastaddress_lat": 37.1326,
    "lastaddress_lng": -121.6417,
    "m_camp_lat": 44.5167,
    "m_camp_lng": -109.05
  },
  {
    "lastaddress": "Manteca",
    "m_originalstate": "CA",
    "w_assemblycenter": "Sacramento (Walerga)",
    "m_camp": "Tulelake",
    "pop": 105,
    "lastaddress_lat": 37.7927,
    "lastaddress_lng": -121.2264,
    "m_camp_lat": 41.8833,
    "m_camp_lng": -121.3667
  },
  {
    "lastaddress": "South Gate",
    "m_originalstate": "CA",
    "w_assemblycenter": "None",
    "m_camp": "Gilariver",
    "pop": 101,
    "lastaddress_lat": 33.9448,
    "lastaddress_lng": -118.1926,
    "m_camp_lat": 32.1667,
    "m_camp_lng": -111.8667
  },
  {
    "lastaddress": "Sacramento",
    "m_originalstate": "CA",
    "w_assemblycenter": "Merced",
    "m_camp": "Amache",
    "pop": 101,
    "lastaddress_lat": 38.5667,
    "lastaddress_lng": -121.4683,
    "m_camp_lat": 38.05,
    "m_camp_lng": -102.3
  },
  {
    "lastaddress": "Torrance",
    "m_originalstate": "CA",
    "w_assemblycenter": "None",
    "m_camp": "Poston",
    "pop": 98,
    "lastaddress_lat": 33.8346,
    "lastaddress_lng": -118.3417,
    "m_camp_lat": 34.15,
    "m_camp_lng": -114.2833
  },
  {
    "lastaddress": "Lodi",
    "m_originalstate": "CA",
    "w_assemblycenter": "Sacramento (Walerga)",
    "m_camp": "Tulelake",
    "pop": 97,
    "lastaddress_lat": 38.1218,
    "lastaddress_lng": -121.2932,
    "m_camp_lat": 41.8833,
    "m_camp_lng": -121.3667
  },
  {
    "lastaddress": "Morgan Hill",
    "m_originalstate": "CA",
    "w_assemblycenter": "Pomona",
    "m_camp": "Heartmountain",
    "pop": 97,
    "lastaddress_lat": 37.1326,
    "lastaddress_lng": -121.6417,
    "m_camp_lat": 44.5167,
    "m_camp_lng": -109.05
  },
  {
    "lastaddress": "Torrance",
    "m_originalstate": "CA",
    "w_assemblycenter": "None",
    "m_camp": "Gilariver",
    "pop": 96,
    "lastaddress_lat": 33.8346,
    "lastaddress_lng": -118.3417,
    "m_camp_lat": 32.1667,
    "m_camp_lng": -111.8667
  },
  {
    "lastaddress": "Longview",
    "m_originalstate": "WA",
    "w_assemblycenter": "None",
    "m_camp": "Tulelake",
    "pop": 94,
    "lastaddress_lat": 46.1461,
    "lastaddress_lng": -122.9629,
    "m_camp_lat": 41.8833,
    "m_camp_lng": -121.3667
  },
  {
    "lastaddress": "Torrance",
    "m_originalstate": "CA",
    "w_assemblycenter": "Santa Anita",
    "m_camp": "Amache",
    "pop": 91,
    "lastaddress_lat": 33.8346,
    "lastaddress_lng": -118.3417,
    "m_camp_lat": 38.05,
    "m_camp_lng": -102.3
  },
  {
    "lastaddress": "Oakland",
    "m_originalstate": "CA",
    "w_assemblycenter": "None",
    "m_camp": "Gilariver",
    "pop": 89,
    "lastaddress_lat": 37.7903,
    "lastaddress_lng": -122.2165,
    "m_camp_lat": 32.1667,
    "m_camp_lng": -111.8667
  },
  {
    "lastaddress": "City_Unregistered",
    "m_originalstate": "Not Found",
    "w_assemblycenter": "None",
    "m_camp": "Gilariver",
    "pop": 88,
    "lastaddress_lat": 0,
    "lastaddress_lng": 0,
    "m_camp_lat": 32.1667,
    "m_camp_lng": -111.8667
  },
  {
    "lastaddress": "Los Angeles",
    "m_originalstate": "CA",
    "w_assemblycenter": "Sacramento (Walerga)",
    "m_camp": "Tulelake",
    "pop": 88,
    "lastaddress_lat": 34.1139,
    "lastaddress_lng": -118.4068,
    "m_camp_lat": 41.8833,
    "m_camp_lng": -121.3667
  },
  {
    "lastaddress": "Palo Alto",
    "m_originalstate": "CA",
    "w_assemblycenter": "Tanforan",
    "m_camp": "Topaz",
    "pop": 87,
    "lastaddress_lat": 37.3913,
    "lastaddress_lng": -122.1468,
    "m_camp_lat": 39.3833,
    "m_camp_lng": -112.7167
  },
  {
    "lastaddress": "Fresno",
    "m_originalstate": "CA",
    "w_assemblycenter": "None",
    "m_camp": "Poston",
    "pop": 86,
    "lastaddress_lat": 36.7831,
    "lastaddress_lng": -119.7941,
    "m_camp_lat": 34.15,
    "m_camp_lng": -114.2833
  },
  {
    "lastaddress": "Woodlake",
    "m_originalstate": "CA",
    "w_assemblycenter": "Fresno",
    "m_camp": "Jerome",
    "pop": 85,
    "lastaddress_lat": 36.4124,
    "lastaddress_lng": -119.0999,
    "m_camp_lat": 33.3833,
    "m_camp_lng": -91.4667
  },
  {
    "lastaddress": "Selma",
    "m_originalstate": "CA",
    "w_assemblycenter": "Fresno",
    "m_camp": "Jerome",
    "pop": 84,
    "lastaddress_lat": 36.5715,
    "lastaddress_lng": -119.6143,
    "m_camp_lat": 33.3833,
    "m_camp_lng": -91.4667
  },
  {
    "lastaddress": "Kauai",
    "m_originalstate": "HI",
    "w_assemblycenter": "None",
    "m_camp": "Jerome",
    "pop": 84,
    "lastaddress_lat": 22.083333,
    "lastaddress_lng": -159.5,
    "m_camp_lat": 33.3833,
    "m_camp_lng": -91.4667
  },
  {
    "lastaddress": "West Covina",
    "m_originalstate": "CA",
    "w_assemblycenter": "Santa Anita",
    "m_camp": "Rohwer",
    "pop": 83,
    "lastaddress_lat": 34.0555,
    "lastaddress_lng": -117.9112,
    "m_camp_lat": 33.75,
    "m_camp_lng": -91.2667
  },
  {
    "lastaddress": "Los Angeles",
    "m_originalstate": "CA",
    "w_assemblycenter": "Santa Anita",
    "m_camp": "Manzanar",
    "pop": 83,
    "lastaddress_lat": 34.1139,
    "lastaddress_lng": -118.4068,
    "m_camp_lat": 36.7333,
    "m_camp_lng": -118.0667
  },
  {
    "lastaddress": "Tulare",
    "m_originalstate": "CA",
    "w_assemblycenter": "Fresno",
    "m_camp": "Jerome",
    "pop": 83,
    "lastaddress_lat": 36.1996,
    "lastaddress_lng": -119.34,
    "m_camp_lat": 33.3833,
    "m_camp_lng": -91.4667
  },
  {
    "lastaddress": "San Francisco",
    "m_originalstate": "CA",
    "w_assemblycenter": "Turlock",
    "m_camp": "Gilariver",
    "pop": 82,
    "lastaddress_lat": 37.7562,
    "lastaddress_lng": -122.443,
    "m_camp_lat": 32.1667,
    "m_camp_lng": -111.8667
  },
  {
    "lastaddress": "San Carlos",
    "m_originalstate": "CA",
    "w_assemblycenter": "Tanforan",
    "m_camp": "Topaz",
    "pop": 80,
    "lastaddress_lat": 37.4982,
    "lastaddress_lng": -122.268,
    "m_camp_lat": 39.3833,
    "m_camp_lng": -112.7167
  },
  {
    "lastaddress": "San Buenaventura",
    "m_originalstate": "CA",
    "w_assemblycenter": "Tulare",
    "m_camp": "Gilariver",
    "pop": 78,
    "lastaddress_lat": 34.2741,
    "lastaddress_lng": -119.2314,
    "m_camp_lat": 32.1667,
    "m_camp_lng": -111.8667
  },
  {
    "lastaddress": "Sunnyvale",
    "m_originalstate": "CA",
    "w_assemblycenter": "Marysville (Arboga)",
    "m_camp": "Tulelake",
    "pop": 77,
    "lastaddress_lat": 37.3836,
    "lastaddress_lng": -122.0256,
    "m_camp_lat": 41.8833,
    "m_camp_lng": -121.3667
  },
  {
    "lastaddress": "City_Unregistered",
    "m_originalstate": "Not Found",
    "w_assemblycenter": "None",
    "m_camp": "Manzanar",
    "pop": 77,
    "lastaddress_lat": 0,
    "lastaddress_lng": 0,
    "m_camp_lat": 36.7333,
    "m_camp_lng": -118.0667
  },
  {
    "lastaddress": "Los Angeles",
    "m_originalstate": "CA",
    "w_assemblycenter": "None",
    "m_camp": "Tulelake",
    "pop": 76,
    "lastaddress_lat": 34.1139,
    "lastaddress_lng": -118.4068,
    "m_camp_lat": 41.8833,
    "m_camp_lng": -121.3667
  },
  {
    "lastaddress": "San Francisco",
    "m_originalstate": "CA",
    "w_assemblycenter": "Sacramento (Walerga)",
    "m_camp": "Tulelake",
    "pop": 76,
    "lastaddress_lat": 37.7562,
    "lastaddress_lng": -122.443,
    "m_camp_lat": 41.8833,
    "m_camp_lng": -121.3667
  },
  {
    "lastaddress": "Santa Clara",
    "m_originalstate": "CA",
    "w_assemblycenter": "Santa Anita",
    "m_camp": "Heartmountain",
    "pop": 75,
    "lastaddress_lat": 37.3645,
    "lastaddress_lng": -121.968,
    "m_camp_lat": 44.5167,
    "m_camp_lng": -109.05
  },
  {
    "lastaddress": "Olympia",
    "m_originalstate": "WA",
    "w_assemblycenter": "None",
    "m_camp": "Tulelake",
    "pop": 75,
    "lastaddress_lat": 47.0417,
    "lastaddress_lng": -122.8959,
    "m_camp_lat": 41.8833,
    "m_camp_lng": -121.3667
  },
  {
    "lastaddress": "Santa Cruz",
    "m_originalstate": "CA",
    "w_assemblycenter": "Salinas",
    "m_camp": "Poston",
    "pop": 74,
    "lastaddress_lat": 36.9789,
    "lastaddress_lng": -122.0346,
    "m_camp_lat": 34.15,
    "m_camp_lng": -114.2833
  },
  {
    "lastaddress": "San Luis Obisbo",
    "m_originalstate": "CA",
    "w_assemblycenter": "Fresno",
    "m_camp": "Jerome",
    "pop": 74,
    "lastaddress_lat": 35.2669,
    "lastaddress_lng": -120.6691,
    "m_camp_lat": 33.3833,
    "m_camp_lng": -91.4667
  },
  {
    "lastaddress": "Spokane",
    "m_originalstate": "WA",
    "w_assemblycenter": "Portland",
    "m_camp": "Heartmountain",
    "pop": 74,
    "lastaddress_lat": 47.6671,
    "lastaddress_lng": -117.433,
    "m_camp_lat": 44.5167,
    "m_camp_lng": -109.05
  },
  {
    "lastaddress": "Needles",
    "m_originalstate": "CA",
    "w_assemblycenter": "None",
    "m_camp": "Poston",
    "pop": 73,
    "lastaddress_lat": 34.8164,
    "lastaddress_lng": -114.6189,
    "m_camp_lat": 34.15,
    "m_camp_lng": -114.2833
  },
  {
    "lastaddress": "Tempe",
    "m_originalstate": "AZ",
    "w_assemblycenter": "Mayer",
    "m_camp": "Poston",
    "pop": 70,
    "lastaddress_lat": 33.3881,
    "lastaddress_lng": -111.9318,
    "m_camp_lat": 34.15,
    "m_camp_lng": -114.2833
  },
  {
    "lastaddress": "Maui",
    "m_originalstate": "HI",
    "w_assemblycenter": "None",
    "m_camp": "Jerome",
    "pop": 70,
    "lastaddress_lat": 20.8,
    "lastaddress_lng": -156.333333,
    "m_camp_lat": 33.3833,
    "m_camp_lng": -91.4667
  },
  {
    "lastaddress": "San Francisco",
    "m_originalstate": "CA",
    "w_assemblycenter": "Stockton",
    "m_camp": "Rohwer",
    "pop": 69,
    "lastaddress_lat": 37.7562,
    "lastaddress_lng": -122.443,
    "m_camp_lat": 33.75,
    "m_camp_lng": -91.2667
  },
  {
    "lastaddress": "Oakland",
    "m_originalstate": "CA",
    "w_assemblycenter": "Merced",
    "m_camp": "Amache",
    "pop": 68,
    "lastaddress_lat": 37.7903,
    "lastaddress_lng": -122.2165,
    "m_camp_lat": 38.05,
    "m_camp_lng": -102.3
  },
  {
    "lastaddress": "Upland",
    "m_originalstate": "CA",
    "w_assemblycenter": "None",
    "m_camp": "Poston",
    "pop": 67,
    "lastaddress_lat": 34.1178,
    "lastaddress_lng": -117.6603,
    "m_camp_lat": 34.15,
    "m_camp_lng": -114.2833
  },
  {
    "lastaddress": "Oakland",
    "m_originalstate": "CA",
    "w_assemblycenter": "Pomona",
    "m_camp": "Heartmountain",
    "pop": 66,
    "lastaddress_lat": 37.7903,
    "lastaddress_lng": -122.2165,
    "m_camp_lat": 44.5167,
    "m_camp_lng": -109.05
  },
  {
    "lastaddress": "Sunnyvale",
    "m_originalstate": "CA",
    "w_assemblycenter": "Pomona",
    "m_camp": "Heartmountain",
    "pop": 65,
    "lastaddress_lat": 37.3836,
    "lastaddress_lng": -122.0256,
    "m_camp_lat": 44.5167,
    "m_camp_lng": -109.05
  },
  {
    "lastaddress": "Arroyo Grande",
    "m_originalstate": "CA",
    "w_assemblycenter": "None",
    "m_camp": "Poston",
    "pop": 65,
    "lastaddress_lat": 35.1241,
    "lastaddress_lng": -120.5845,
    "m_camp_lat": 34.15,
    "m_camp_lng": -114.2833
  },
  {
    "lastaddress": "San Francisco",
    "m_originalstate": "CA",
    "w_assemblycenter": "None",
    "m_camp": "Tulelake",
    "pop": 64,
    "lastaddress_lat": 37.7562,
    "lastaddress_lng": -122.443,
    "m_camp_lat": 41.8833,
    "m_camp_lng": -121.3667
  },
  {
    "lastaddress": "Los Angeles",
    "m_originalstate": "CA",
    "w_assemblycenter": "Marysville (Arboga)",
    "m_camp": "Tulelake",
    "pop": 63,
    "lastaddress_lat": 34.1139,
    "lastaddress_lng": -118.4068,
    "m_camp_lat": 41.8833,
    "m_camp_lng": -121.3667
  },
  {
    "lastaddress": "Redlands",
    "m_originalstate": "CA",
    "w_assemblycenter": "None",
    "m_camp": "Poston",
    "pop": 63,
    "lastaddress_lat": 34.0511,
    "lastaddress_lng": -117.1712,
    "m_camp_lat": 34.15,
    "m_camp_lng": -114.2833
  },
  {
    "lastaddress": "Oakland",
    "m_originalstate": "CA",
    "w_assemblycenter": "Sacramento (Walerga)",
    "m_camp": "Tulelake",
    "pop": 63,
    "lastaddress_lat": 37.7903,
    "lastaddress_lng": -122.2165,
    "m_camp_lat": 41.8833,
    "m_camp_lng": -121.3667
  },
  {
    "lastaddress": "Fresno",
    "m_originalstate": "CA",
    "w_assemblycenter": "Fresno",
    "m_camp": "Gilariver",
    "pop": 62,
    "lastaddress_lat": 36.7831,
    "lastaddress_lng": -119.7941,
    "m_camp_lat": 32.1667,
    "m_camp_lng": -111.8667
  },
  {
    "lastaddress": "Yacolt",
    "m_originalstate": "WA",
    "w_assemblycenter": "None",
    "m_camp": "Tulelake",
    "pop": 62,
    "lastaddress_lat": 45.8653,
    "lastaddress_lng": -122.4062,
    "m_camp_lat": 41.8833,
    "m_camp_lng": -121.3667
  },
  {
    "lastaddress": "San Jose",
    "m_originalstate": "CA",
    "w_assemblycenter": "None",
    "m_camp": "Gilariver",
    "pop": 61,
    "lastaddress_lat": 37.3019,
    "lastaddress_lng": -121.8486,
    "m_camp_lat": 32.1667,
    "m_camp_lng": -111.8667
  },
  {
    "lastaddress": "National City",
    "m_originalstate": "CA",
    "w_assemblycenter": "Santa Anita",
    "m_camp": "Poston",
    "pop": 61,
    "lastaddress_lat": 32.6654,
    "lastaddress_lng": -117.0983,
    "m_camp_lat": 34.15,
    "m_camp_lng": -114.2833
  },
  {
    "lastaddress": "San Francisco",
    "m_originalstate": "CA",
    "w_assemblycenter": "Merced",
    "m_camp": "Amache",
    "pop": 60,
    "lastaddress_lat": 37.7562,
    "lastaddress_lng": -122.443,
    "m_camp_lat": 38.05,
    "m_camp_lng": -102.3
  },
  {
    "lastaddress": "Oakland",
    "m_originalstate": "CA",
    "w_assemblycenter": "None",
    "m_camp": "Poston",
    "pop": 60,
    "lastaddress_lat": 37.7903,
    "lastaddress_lng": -122.2165,
    "m_camp_lat": 34.15,
    "m_camp_lng": -114.2833
  },
  {
    "lastaddress": "Los Angeles",
    "m_originalstate": "CA",
    "w_assemblycenter": "Merced",
    "m_camp": "Amache",
    "pop": 60,
    "lastaddress_lat": 34.1139,
    "lastaddress_lng": -118.4068,
    "m_camp_lat": 38.05,
    "m_camp_lng": -102.3
  },
  {
    "lastaddress": "Winters",
    "m_originalstate": "CA",
    "w_assemblycenter": "Sacramento (Walerga)",
    "m_camp": "Tulelake",
    "pop": 58,
    "lastaddress_lat": 38.532,
    "lastaddress_lng": -121.9781,
    "m_camp_lat": 41.8833,
    "m_camp_lng": -121.3667
  },
  {
    "lastaddress": "South Gate",
    "m_originalstate": "CA",
    "w_assemblycenter": "Santa Anita",
    "m_camp": "Heartmountain",
    "pop": 58,
    "lastaddress_lat": 33.9448,
    "lastaddress_lng": -118.1926,
    "m_camp_lat": 44.5167,
    "m_camp_lng": -109.05
  },
  {
    "lastaddress": "South Gate",
    "m_originalstate": "CA",
    "w_assemblycenter": "Pomona",
    "m_camp": "Heartmountain",
    "pop": 57,
    "lastaddress_lat": 33.9448,
    "lastaddress_lng": -118.1926,
    "m_camp_lat": 44.5167,
    "m_camp_lng": -109.05
  },
  {
    "lastaddress": "San Francisco",
    "m_originalstate": "CA",
    "w_assemblycenter": "Marysville (Arboga)",
    "m_camp": "Tulelake",
    "pop": 57,
    "lastaddress_lat": 37.7562,
    "lastaddress_lng": -122.443,
    "m_camp_lat": 41.8833,
    "m_camp_lng": -121.3667
  },
  {
    "lastaddress": "Pittsburg",
    "m_originalstate": "CA",
    "w_assemblycenter": "Tanforan",
    "m_camp": "Topaz",
    "pop": 57,
    "lastaddress_lat": 38.0182,
    "lastaddress_lng": -121.8964,
    "m_camp_lat": 39.3833,
    "m_camp_lng": -112.7167
  },
  {
    "lastaddress": "Whittier",
    "m_originalstate": "CA",
    "w_assemblycenter": "None",
    "m_camp": "Poston",
    "pop": 55,
    "lastaddress_lat": 33.9678,
    "lastaddress_lng": -118.0188,
    "m_camp_lat": 34.15,
    "m_camp_lng": -114.2833
  },
  {
    "lastaddress": "Lindsay",
    "m_originalstate": "CA",
    "w_assemblycenter": "Fresno",
    "m_camp": "Jerome",
    "pop": 55,
    "lastaddress_lat": 36.2082,
    "lastaddress_lng": -119.0897,
    "m_camp_lat": 33.3833,
    "m_camp_lng": -91.4667
  },
  {
    "lastaddress": "Richmond",
    "m_originalstate": "CA",
    "w_assemblycenter": "Tanforan",
    "m_camp": "Topaz",
    "pop": 55,
    "lastaddress_lat": 37.9477,
    "lastaddress_lng": -122.339,
    "m_camp_lat": 39.3833,
    "m_camp_lng": -112.7167
  },
  {
    "lastaddress": "Pleasanton",
    "m_originalstate": "CA",
    "w_assemblycenter": "Turlock",
    "m_camp": "Gilariver",
    "pop": 54,
    "lastaddress_lat": 37.6663,
    "lastaddress_lng": -121.8805,
    "m_camp_lat": 32.1667,
    "m_camp_lng": -111.8667
  },
  {
    "lastaddress": "Oakland",
    "m_originalstate": "CA",
    "w_assemblycenter": "Fresno",
    "m_camp": "Jerome",
    "pop": 53,
    "lastaddress_lat": 37.7903,
    "lastaddress_lng": -122.2165,
    "m_camp_lat": 33.3833,
    "m_camp_lng": -91.4667
  },
  {
    "lastaddress": "South Gate",
    "m_originalstate": "CA",
    "w_assemblycenter": "None",
    "m_camp": "Poston",
    "pop": 52,
    "lastaddress_lat": 33.9448,
    "lastaddress_lng": -118.1926,
    "m_camp_lat": 34.15,
    "m_camp_lng": -114.2833
  },
  {
    "lastaddress": "Vancouver",
    "m_originalstate": "WA",
    "w_assemblycenter": "None",
    "m_camp": "Tulelake",
    "pop": 51,
    "lastaddress_lat": 45.6366,
    "lastaddress_lng": -122.5967,
    "m_camp_lat": 41.8833,
    "m_camp_lng": -121.3667
  },
  {
    "lastaddress": "South Gate",
    "m_originalstate": "CA",
    "w_assemblycenter": "Fresno",
    "m_camp": "Jerome",
    "pop": 50,
    "lastaddress_lat": 33.9448,
    "lastaddress_lng": -118.1926,
    "m_camp_lat": 33.3833,
    "m_camp_lng": -91.4667
  },
  {
    "lastaddress": "San Francisco",
    "m_originalstate": "CA",
    "w_assemblycenter": "None",
    "m_camp": "Gilariver",
    "pop": 50,
    "lastaddress_lat": 37.7562,
    "lastaddress_lng": -122.443,
    "m_camp_lat": 32.1667,
    "m_camp_lng": -111.8667
  },
  {
    "lastaddress": "Wilkeson",
    "m_originalstate": "WA",
    "w_assemblycenter": "Pinedale",
    "m_camp": "Tulelake",
    "pop": 50,
    "lastaddress_lat": 47.1034,
    "lastaddress_lng": -122.0495,
    "m_camp_lat": 41.8833,
    "m_camp_lng": -121.3667
  },
  {
    "lastaddress": "San Francisco",
    "m_originalstate": "CA",
    "w_assemblycenter": "None",
    "m_camp": "Poston",
    "pop": 48,
    "lastaddress_lat": 37.7562,
    "lastaddress_lng": -122.443,
    "m_camp_lat": 34.15,
    "m_camp_lng": -114.2833
  },
  {
    "lastaddress": "City_Unregistered",
    "m_originalstate": "Not Found",
    "w_assemblycenter": "None",
    "m_camp": "Tulelake",
    "pop": 48,
    "lastaddress_lat": 0,
    "lastaddress_lng": 0,
    "m_camp_lat": 41.8833,
    "m_camp_lng": -121.3667
  },
  {
    "lastaddress": "White Salmon",
    "m_originalstate": "WA",
    "w_assemblycenter": "Pinedale",
    "m_camp": "Tulelake",
    "pop": 47,
    "lastaddress_lat": 45.7283,
    "lastaddress_lng": -121.4856,
    "m_camp_lat": 41.8833,
    "m_camp_lng": -121.3667
  },
  {
    "lastaddress": "Rialto",
    "m_originalstate": "CA",
    "w_assemblycenter": "None",
    "m_camp": "Poston",
    "pop": 47,
    "lastaddress_lat": 34.1174,
    "lastaddress_lng": -117.3894,
    "m_camp_lat": 34.15,
    "m_camp_lng": -114.2833
  },
  {
    "lastaddress": "Sausalito",
    "m_originalstate": "CA",
    "w_assemblycenter": "Merced",
    "m_camp": "Amache",
    "pop": 47,
    "lastaddress_lat": 37.858,
    "lastaddress_lng": -122.4932,
    "m_camp_lat": 38.05,
    "m_camp_lng": -102.3
  },
  {
    "lastaddress": "Lawndale",
    "m_originalstate": "CA",
    "w_assemblycenter": "Santa Anita",
    "m_camp": "Rohwer",
    "pop": 47,
    "lastaddress_lat": 33.8884,
    "lastaddress_lng": -118.3531,
    "m_camp_lat": 33.75,
    "m_camp_lng": -91.2667
  },
  {
    "lastaddress": "San Francisco",
    "m_originalstate": "CA",
    "w_assemblycenter": "Fresno",
    "m_camp": "Jerome",
    "pop": 46,
    "lastaddress_lat": 37.7562,
    "lastaddress_lng": -122.443,
    "m_camp_lat": 33.3833,
    "m_camp_lng": -91.4667
  },
  {
    "lastaddress": "Whittier",
    "m_originalstate": "CA",
    "w_assemblycenter": "Santa Anita",
    "m_camp": "Heartmountain",
    "pop": 46,
    "lastaddress_lat": 33.9678,
    "lastaddress_lng": -118.0188,
    "m_camp_lat": 44.5167,
    "m_camp_lng": -109.05
  },
  {
    "lastaddress": "Port Orchard",
    "m_originalstate": "WA",
    "w_assemblycenter": "Pinedale",
    "m_camp": "Tulelake",
    "pop": 45,
    "lastaddress_lat": 47.5163,
    "lastaddress_lng": -122.661,
    "m_camp_lat": 41.8833,
    "m_camp_lng": -121.3667
  },
  {
    "lastaddress": "Torrance",
    "m_originalstate": "CA",
    "w_assemblycenter": "Santa Anita",
    "m_camp": "Gilariver",
    "pop": 45,
    "lastaddress_lat": 33.8346,
    "lastaddress_lng": -118.3417,
    "m_camp_lat": 32.1667,
    "m_camp_lng": -111.8667
  },
  {
    "lastaddress": "Whittier",
    "m_originalstate": "CA",
    "w_assemblycenter": "Santa Anita",
    "m_camp": "Gilariver",
    "pop": 44,
    "lastaddress_lat": 33.9678,
    "lastaddress_lng": -118.0188,
    "m_camp_lat": 32.1667,
    "m_camp_lng": -111.8667
  },
  {
    "lastaddress": "Willows",
    "m_originalstate": "CA",
    "w_assemblycenter": "Merced",
    "m_camp": "Amache",
    "pop": 44,
    "lastaddress_lat": 39.5149,
    "lastaddress_lng": -122.1995,
    "m_camp_lat": 38.05,
    "m_camp_lng": -102.3
  },
  {
    "lastaddress": "City_Unregistered",
    "m_originalstate": "Not Found",
    "w_assemblycenter": "Tanforan",
    "m_camp": "Topaz",
    "pop": 44,
    "lastaddress_lat": 0,
    "lastaddress_lng": 0,
    "m_camp_lat": 39.3833,
    "m_camp_lng": -112.7167
  },
  {
    "lastaddress": "Salinas",
    "m_originalstate": "CA",
    "w_assemblycenter": "Sacramento (Walerga)",
    "m_camp": "Tulelake",
    "pop": 43,
    "lastaddress_lat": 36.6884,
    "lastaddress_lng": -121.6317,
    "m_camp_lat": 41.8833,
    "m_camp_lng": -121.3667
  },
  {
    "lastaddress": "Whittier",
    "m_originalstate": "CA",
    "w_assemblycenter": "Santa Anita",
    "m_camp": "Amache",
    "pop": 43,
    "lastaddress_lat": 33.9678,
    "lastaddress_lng": -118.0188,
    "m_camp_lat": 38.05,
    "m_camp_lng": -102.3
  },
  {
    "lastaddress": "San Jose",
    "m_originalstate": "CA",
    "w_assemblycenter": "None",
    "m_camp": "Poston",
    "pop": 43,
    "lastaddress_lat": 37.3019,
    "lastaddress_lng": -121.8486,
    "m_camp_lat": 34.15,
    "m_camp_lng": -114.2833
  },
  {
    "lastaddress": "Lyman",
    "m_originalstate": "WA",
    "w_assemblycenter": "None",
    "m_camp": "Tulelake",
    "pop": 41,
    "lastaddress_lat": 48.523,
    "lastaddress_lng": -122.0634,
    "m_camp_lat": 41.8833,
    "m_camp_lng": -121.3667
  },
  {
    "lastaddress": "Salinas",
    "m_originalstate": "CA",
    "w_assemblycenter": "Salinas",
    "m_camp": "Tulelake",
    "pop": 41,
    "lastaddress_lat": 36.6884,
    "lastaddress_lng": -121.6317,
    "m_camp_lat": 41.8833,
    "m_camp_lng": -121.3667
  },
  {
    "lastaddress": "West Covina",
    "m_originalstate": "CA",
    "w_assemblycenter": "Santa Anita",
    "m_camp": "Jerome",
    "pop": 40,
    "lastaddress_lat": 34.0555,
    "lastaddress_lng": -117.9112,
    "m_camp_lat": 33.3833,
    "m_camp_lng": -91.4667
  },
  {
    "lastaddress": "City_Unregistered",
    "m_originalstate": "Not Found",
    "w_assemblycenter": "Santa Anita",
    "m_camp": "Rohwer",
    "pop": 40,
    "lastaddress_lat": 0,
    "lastaddress_lng": 0,
    "m_camp_lat": 33.75,
    "m_camp_lng": -91.2667
  },
  {
    "lastaddress": "Morgan Hill",
    "m_originalstate": "CA",
    "w_assemblycenter": "Salinas",
    "m_camp": "Poston",
    "pop": 40,
    "lastaddress_lat": 37.1326,
    "lastaddress_lng": -121.6417,
    "m_camp_lat": 34.15,
    "m_camp_lng": -114.2833
  },
  {
    "lastaddress": "San Luis Obisbo",
    "m_originalstate": "CA",
    "w_assemblycenter": "None",
    "m_camp": "Poston",
    "pop": 39,
    "lastaddress_lat": 35.2669,
    "lastaddress_lng": -120.6691,
    "m_camp_lat": 34.15,
    "m_camp_lng": -114.2833
  },
  {
    "lastaddress": "West Covina",
    "m_originalstate": "CA",
    "w_assemblycenter": "Manzanar",
    "m_camp": "Manzanar",
    "pop": 39,
    "lastaddress_lat": 34.0555,
    "lastaddress_lng": -117.9112,
    "m_camp_lat": 36.7333,
    "m_camp_lng": -118.0667
  },
  {
    "lastaddress": "Newport Beach",
    "m_originalstate": "CA",
    "w_assemblycenter": "Manzanar",
    "m_camp": "Manzanar",
    "pop": 39,
    "lastaddress_lat": 33.6151,
    "lastaddress_lng": -117.8669,
    "m_camp_lat": 36.7333,
    "m_camp_lng": -118.0667
  },
  {
    "lastaddress": "City_Unregistered",
    "m_originalstate": "Not Found",
    "w_assemblycenter": "None",
    "m_camp": "Heartmountain",
    "pop": 39,
    "lastaddress_lat": 0,
    "lastaddress_lng": 0,
    "m_camp_lat": 44.5167,
    "m_camp_lng": -109.05
  },
  {
    "lastaddress": "Marysville",
    "m_originalstate": "CA",
    "w_assemblycenter": "Merced",
    "m_camp": "Amache",
    "pop": 38,
    "lastaddress_lat": 39.1518,
    "lastaddress_lng": -121.5835,
    "m_camp_lat": 38.05,
    "m_camp_lng": -102.3
  },
  {
    "lastaddress": "Oakland",
    "m_originalstate": "CA",
    "w_assemblycenter": "Stockton",
    "m_camp": "Rohwer",
    "pop": 38,
    "lastaddress_lat": 37.7903,
    "lastaddress_lng": -122.2165,
    "m_camp_lat": 33.75,
    "m_camp_lng": -91.2667
  },
  {
    "lastaddress": "Salinas",
    "m_originalstate": "CA",
    "w_assemblycenter": "Fresno",
    "m_camp": "Jerome",
    "pop": 38,
    "lastaddress_lat": 36.6884,
    "lastaddress_lng": -121.6317,
    "m_camp_lat": 33.3833,
    "m_camp_lng": -91.4667
  },
  {
    "lastaddress": "Wilkeson",
    "m_originalstate": "WA",
    "w_assemblycenter": "Puyallup",
    "m_camp": "Tulelake",
    "pop": 37,
    "lastaddress_lat": 47.1034,
    "lastaddress_lng": -122.0495,
    "m_camp_lat": 41.8833,
    "m_camp_lng": -121.3667
  },
  {
    "lastaddress": "Signal Hill",
    "m_originalstate": "CA",
    "w_assemblycenter": "Manzanar",
    "m_camp": "Manzanar",
    "pop": 37,
    "lastaddress_lat": 33.8029,
    "lastaddress_lng": -118.1681,
    "m_camp_lat": 36.7333,
    "m_camp_lng": -118.0667
  },
  {
    "lastaddress": "Signal Hill",
    "m_originalstate": "CA",
    "w_assemblycenter": "Santa Anita",
    "m_camp": "Gilariver",
    "pop": 37,
    "lastaddress_lat": 33.8029,
    "lastaddress_lng": -118.1681,
    "m_camp_lat": 32.1667,
    "m_camp_lng": -111.8667
  },
  {
    "lastaddress": "Salinas",
    "m_originalstate": "CA",
    "w_assemblycenter": "None",
    "m_camp": "Gilariver",
    "pop": 37,
    "lastaddress_lat": 36.6884,
    "lastaddress_lng": -121.6317,
    "m_camp_lat": 32.1667,
    "m_camp_lng": -111.8667
  },
  {
    "lastaddress": "Renton",
    "m_originalstate": "WA",
    "w_assemblycenter": "Puyallup",
    "m_camp": "Minidoka",
    "pop": 36,
    "lastaddress_lat": 47.4784,
    "lastaddress_lng": -122.1919,
    "m_camp_lat": 42.6667,
    "m_camp_lng": -114.2333
  },
  {
    "lastaddress": "Torrance",
    "m_originalstate": "CA",
    "w_assemblycenter": "Santa Anita",
    "m_camp": "Heartmountain",
    "pop": 36,
    "lastaddress_lat": 33.8346,
    "lastaddress_lng": -118.3417,
    "m_camp_lat": 44.5167,
    "m_camp_lng": -109.05
  },
  {
    "lastaddress": "Oakland",
    "m_originalstate": "CA",
    "w_assemblycenter": "Santa Anita",
    "m_camp": "Heartmountain",
    "pop": 35,
    "lastaddress_lat": 37.7903,
    "lastaddress_lng": -122.2165,
    "m_camp_lat": 44.5167,
    "m_camp_lng": -109.05
  },
  {
    "lastaddress": "City_Unregistered",
    "m_originalstate": "Not Found",
    "w_assemblycenter": "None",
    "m_camp": "Minidoka",
    "pop": 35,
    "lastaddress_lat": 0,
    "lastaddress_lng": 0,
    "m_camp_lat": 42.6667,
    "m_camp_lng": -114.2333
  },
  {
    "lastaddress": "Fillmore",
    "m_originalstate": "CA",
    "w_assemblycenter": "Tulare",
    "m_camp": "Gilariver",
    "pop": 35,
    "lastaddress_lat": 34.3989,
    "lastaddress_lng": -118.9181,
    "m_camp_lat": 32.1667,
    "m_camp_lng": -111.8667
  },
  {
    "lastaddress": "City_Unregistered",
    "m_originalstate": "Not Found",
    "w_assemblycenter": "None",
    "m_camp": "Topaz",
    "pop": 34,
    "lastaddress_lat": 0,
    "lastaddress_lng": 0,
    "m_camp_lat": 39.3833,
    "m_camp_lng": -112.7167
  },
  {
    "lastaddress": "Pleasanton",
    "m_originalstate": "CA",
    "w_assemblycenter": "None",
    "m_camp": "Tulelake",
    "pop": 34,
    "lastaddress_lat": 37.6663,
    "lastaddress_lng": -121.8805,
    "m_camp_lat": 41.8833,
    "m_camp_lng": -121.3667
  },
  {
    "lastaddress": "Salinas",
    "m_originalstate": "CA",
    "w_assemblycenter": "None",
    "m_camp": "Poston",
    "pop": 34,
    "lastaddress_lat": 36.6884,
    "lastaddress_lng": -121.6317,
    "m_camp_lat": 34.15,
    "m_camp_lng": -114.2833
  },
  {
    "lastaddress": "South Gate",
    "m_originalstate": "CA",
    "w_assemblycenter": "Santa Anita",
    "m_camp": "Amache",
    "pop": 34,
    "lastaddress_lat": 33.9448,
    "lastaddress_lng": -118.1926,
    "m_camp_lat": 38.05,
    "m_camp_lng": -102.3
  },
  {
    "lastaddress": "Salinas",
    "m_originalstate": "CA",
    "w_assemblycenter": "Merced",
    "m_camp": "Amache",
    "pop": 33,
    "lastaddress_lat": 36.6884,
    "lastaddress_lng": -121.6317,
    "m_camp_lat": 38.05,
    "m_camp_lng": -102.3
  },
  {
    "lastaddress": "South Bend",
    "m_originalstate": "WA",
    "w_assemblycenter": "None",
    "m_camp": "Tulelake",
    "pop": 33,
    "lastaddress_lat": 46.6678,
    "lastaddress_lng": -123.8006,
    "m_camp_lat": 41.8833,
    "m_camp_lng": -121.3667
  },
  {
    "lastaddress": "Tukwila",
    "m_originalstate": "WA",
    "w_assemblycenter": "None",
    "m_camp": "Tulelake",
    "pop": 33,
    "lastaddress_lat": 47.4749,
    "lastaddress_lng": -122.2727,
    "m_camp_lat": 41.8833,
    "m_camp_lng": -121.3667
  },
  {
    "lastaddress": "San Luis Obisbo",
    "m_originalstate": "CA",
    "w_assemblycenter": "Salinas",
    "m_camp": "Poston",
    "pop": 33,
    "lastaddress_lat": 35.2669,
    "lastaddress_lng": -120.6691,
    "m_camp_lat": 34.15,
    "m_camp_lng": -114.2833
  },
  {
    "lastaddress": "City_Unregistered",
    "m_originalstate": "Not Found",
    "w_assemblycenter": "Santa Anita",
    "m_camp": "Heartmountain",
    "pop": 32,
    "lastaddress_lat": 0,
    "lastaddress_lng": 0,
    "m_camp_lat": 44.5167,
    "m_camp_lng": -109.05
  },
  {
    "lastaddress": "Ukiah",
    "m_originalstate": "CA",
    "w_assemblycenter": "Merced",
    "m_camp": "Amache",
    "pop": 32,
    "lastaddress_lat": 39.1463,
    "lastaddress_lng": -123.2105,
    "m_camp_lat": 38.05,
    "m_camp_lng": -102.3
  },
  {
    "lastaddress": "Watsonville",
    "m_originalstate": "CA",
    "w_assemblycenter": "Salinas",
    "m_camp": "Tulelake",
    "pop": 31,
    "lastaddress_lat": 36.9206,
    "lastaddress_lng": -121.7706,
    "m_camp_lat": 41.8833,
    "m_camp_lng": -121.3667
  },
  {
    "lastaddress": "Sunnyvale",
    "m_originalstate": "CA",
    "w_assemblycenter": "None",
    "m_camp": "Tulelake",
    "pop": 31,
    "lastaddress_lat": 37.3836,
    "lastaddress_lng": -122.0256,
    "m_camp_lat": 41.8833,
    "m_camp_lng": -121.3667
  },
  {
    "lastaddress": "Sunnyvale",
    "m_originalstate": "CA",
    "w_assemblycenter": "None",
    "m_camp": "Gilariver",
    "pop": 31,
    "lastaddress_lat": 37.3836,
    "lastaddress_lng": -122.0256,
    "m_camp_lat": 32.1667,
    "m_camp_lng": -111.8667
  },
  {
    "lastaddress": "Wheatland",
    "m_originalstate": "CA",
    "w_assemblycenter": "None",
    "m_camp": "Tulelake",
    "pop": 31,
    "lastaddress_lat": 39.0287,
    "lastaddress_lng": -121.39,
    "m_camp_lat": 41.8833,
    "m_camp_lng": -121.3667
  },
  {
    "lastaddress": "San Jose",
    "m_originalstate": "CA",
    "w_assemblycenter": "None",
    "m_camp": "Tulelake",
    "pop": 31,
    "lastaddress_lat": 37.3019,
    "lastaddress_lng": -121.8486,
    "m_camp_lat": 41.8833,
    "m_camp_lng": -121.3667
  },
  {
    "lastaddress": "Torrance",
    "m_originalstate": "CA",
    "w_assemblycenter": "Santa Anita",
    "m_camp": "Poston",
    "pop": 30,
    "lastaddress_lat": 33.8346,
    "lastaddress_lng": -118.3417,
    "m_camp_lat": 34.15,
    "m_camp_lng": -114.2833
  },
  {
    "lastaddress": "Winlock",
    "m_originalstate": "WA",
    "w_assemblycenter": "None",
    "m_camp": "Tulelake",
    "pop": 30,
    "lastaddress_lat": 46.4907,
    "lastaddress_lng": -122.9342,
    "m_camp_lat": 41.8833,
    "m_camp_lng": -121.3667
  },
  {
    "lastaddress": "Oakland",
    "m_originalstate": "CA",
    "w_assemblycenter": "Marysville (Arboga)",
    "m_camp": "Tulelake",
    "pop": 30,
    "lastaddress_lat": 37.7903,
    "lastaddress_lng": -122.2165,
    "m_camp_lat": 41.8833,
    "m_camp_lng": -121.3667
  },
  {
    "lastaddress": "Los Angeles",
    "m_originalstate": "CA",
    "w_assemblycenter": "Stockton",
    "m_camp": "Rohwer",
    "pop": 30,
    "lastaddress_lat": 34.1139,
    "lastaddress_lng": -118.4068,
    "m_camp_lat": 33.75,
    "m_camp_lng": -91.2667
  },
  {
    "lastaddress": "Watsonville",
    "m_originalstate": "CA",
    "w_assemblycenter": "None",
    "m_camp": "Gilariver",
    "pop": 30,
    "lastaddress_lat": 36.9206,
    "lastaddress_lng": -121.7706,
    "m_camp_lat": 32.1667,
    "m_camp_lng": -111.8667
  },
  {
    "lastaddress": "South Gate",
    "m_originalstate": "CA",
    "w_assemblycenter": "Santa Anita",
    "m_camp": "Poston",
    "pop": 29,
    "lastaddress_lat": 33.9448,
    "lastaddress_lng": -118.1926,
    "m_camp_lat": 34.15,
    "m_camp_lng": -114.2833
  },
  {
    "lastaddress": "Manteca",
    "m_originalstate": "CA",
    "w_assemblycenter": "Stockton",
    "m_camp": "Gilariver",
    "pop": 29,
    "lastaddress_lat": 37.7927,
    "lastaddress_lng": -121.2264,
    "m_camp_lat": 32.1667,
    "m_camp_lng": -111.8667
  },
  {
    "lastaddress": "Bellingham",
    "m_originalstate": "WA",
    "w_assemblycenter": "None",
    "m_camp": "Tulelake",
    "pop": 29,
    "lastaddress_lat": 48.7543,
    "lastaddress_lng": -122.4687,
    "m_camp_lat": 41.8833,
    "m_camp_lng": -121.3667
  },
  {
    "lastaddress": "Ojai",
    "m_originalstate": "CA",
    "w_assemblycenter": "Tulare",
    "m_camp": "Gilariver",
    "pop": 29,
    "lastaddress_lat": 34.4487,
    "lastaddress_lng": -119.2469,
    "m_camp_lat": 32.1667,
    "m_camp_lng": -111.8667
  },
  {
    "lastaddress": "Chico",
    "m_originalstate": "CA",
    "w_assemblycenter": "None",
    "m_camp": "Tulelake",
    "pop": 29,
    "lastaddress_lat": 39.7575,
    "lastaddress_lng": -121.8152,
    "m_camp_lat": 41.8833,
    "m_camp_lng": -121.3667
  },
  {
    "lastaddress": "San Francisco",
    "m_originalstate": "CA",
    "w_assemblycenter": "None",
    "m_camp": "Manzanar",
    "pop": 29,
    "lastaddress_lat": 37.7562,
    "lastaddress_lng": -122.443,
    "m_camp_lat": 36.7333,
    "m_camp_lng": -118.0667
  },
  {
    "lastaddress": "Hawaii",
    "m_originalstate": "HI",
    "w_assemblycenter": "None",
    "m_camp": "Topaz",
    "pop": 28,
    "lastaddress_lat": 19.566667,
    "lastaddress_lng": -155.5,
    "m_camp_lat": 39.3833,
    "m_camp_lng": -112.7167
  },
  {
    "lastaddress": "Merced",
    "m_originalstate": "CA",
    "w_assemblycenter": "Merced",
    "m_camp": "Amache",
    "pop": 28,
    "lastaddress_lat": 37.3057,
    "lastaddress_lng": -120.4778,
    "m_camp_lat": 38.05,
    "m_camp_lng": -102.3
  },
  {
    "lastaddress": "Salinas",
    "m_originalstate": "CA",
    "w_assemblycenter": "Turlock",
    "m_camp": "Gilariver",
    "pop": 28,
    "lastaddress_lat": 36.6884,
    "lastaddress_lng": -121.6317,
    "m_camp_lat": 32.1667,
    "m_camp_lng": -111.8667
  },
  {
    "lastaddress": "Chico",
    "m_originalstate": "CA",
    "w_assemblycenter": "Merced",
    "m_camp": "Amache",
    "pop": 28,
    "lastaddress_lat": 39.7575,
    "lastaddress_lng": -121.8152,
    "m_camp_lat": 38.05,
    "m_camp_lng": -102.3
  },
  {
    "lastaddress": "Wenatchee",
    "m_originalstate": "WA",
    "w_assemblycenter": "Portland",
    "m_camp": "Heartmountain",
    "pop": 27,
    "lastaddress_lat": 47.4356,
    "lastaddress_lng": -120.3283,
    "m_camp_lat": 44.5167,
    "m_camp_lng": -109.05
  },
  {
    "lastaddress": "White Salmon",
    "m_originalstate": "WA",
    "w_assemblycenter": "Portland",
    "m_camp": "Heartmountain",
    "pop": 27,
    "lastaddress_lat": 45.7283,
    "lastaddress_lng": -121.4856,
    "m_camp_lat": 44.5167,
    "m_camp_lng": -109.05
  },
  {
    "lastaddress": "Richland",
    "m_originalstate": "WA",
    "w_assemblycenter": "Portland",
    "m_camp": "Heartmountain",
    "pop": 27,
    "lastaddress_lat": 46.2824,
    "lastaddress_lng": -119.2938,
    "m_camp_lat": 44.5167,
    "m_camp_lng": -109.05
  },
  {
    "lastaddress": "San Diego",
    "m_originalstate": "CA",
    "w_assemblycenter": "None",
    "m_camp": "Poston",
    "pop": 27,
    "lastaddress_lat": 32.8312,
    "lastaddress_lng": -117.1225,
    "m_camp_lat": 34.15,
    "m_camp_lng": -114.2833
  },
  {
    "lastaddress": "Arroyo Grande",
    "m_originalstate": "CA",
    "w_assemblycenter": "Fresno",
    "m_camp": "Jerome",
    "pop": 27,
    "lastaddress_lat": 35.1241,
    "lastaddress_lng": -120.5845,
    "m_camp_lat": 33.3833,
    "m_camp_lng": -91.4667
  },
  {
    "lastaddress": "City_Unregistered",
    "m_originalstate": "Not Found",
    "w_assemblycenter": "Santa Anita",
    "m_camp": "Amache",
    "pop": 27,
    "lastaddress_lat": 0,
    "lastaddress_lng": 0,
    "m_camp_lat": 38.05,
    "m_camp_lng": -102.3
  },
  {
    "lastaddress": "Tulare",
    "m_originalstate": "CA",
    "w_assemblycenter": "None",
    "m_camp": "Gilariver",
    "pop": 27,
    "lastaddress_lat": 36.1996,
    "lastaddress_lng": -119.34,
    "m_camp_lat": 32.1667,
    "m_camp_lng": -111.8667
  },
  {
    "lastaddress": "Whittier",
    "m_originalstate": "CA",
    "w_assemblycenter": "None",
    "m_camp": "Gilariver",
    "pop": 26,
    "lastaddress_lat": 33.9678,
    "lastaddress_lng": -118.0188,
    "m_camp_lat": 32.1667,
    "m_camp_lng": -111.8667
  },
  {
    "lastaddress": "San Jose",
    "m_originalstate": "CA",
    "w_assemblycenter": "Santa Anita",
    "m_camp": "Gilariver",
    "pop": 26,
    "lastaddress_lat": 37.3019,
    "lastaddress_lng": -121.8486,
    "m_camp_lat": 32.1667,
    "m_camp_lng": -111.8667
  },
  {
    "lastaddress": "City_Unregistered",
    "m_originalstate": "Not Found",
    "w_assemblycenter": "Puyallup",
    "m_camp": "Minidoka",
    "pop": 26,
    "lastaddress_lat": 0,
    "lastaddress_lng": 0,
    "m_camp_lat": 42.6667,
    "m_camp_lng": -114.2333
  },
  {
    "lastaddress": "San Jose",
    "m_originalstate": "CA",
    "w_assemblycenter": "Merced",
    "m_camp": "Amache",
    "pop": 26,
    "lastaddress_lat": 37.3019,
    "lastaddress_lng": -121.8486,
    "m_camp_lat": 38.05,
    "m_camp_lng": -102.3
  },
  {
    "lastaddress": "Signal Hill",
    "m_originalstate": "CA",
    "w_assemblycenter": "Santa Anita",
    "m_camp": "Heartmountain",
    "pop": 26,
    "lastaddress_lat": 33.8029,
    "lastaddress_lng": -118.1681,
    "m_camp_lat": 44.5167,
    "m_camp_lng": -109.05
  },
  {
    "lastaddress": "Stockton",
    "m_originalstate": "CA",
    "w_assemblycenter": "Manzanar",
    "m_camp": "Manzanar",
    "pop": 26,
    "lastaddress_lat": 37.9765,
    "lastaddress_lng": -121.3109,
    "m_camp_lat": 36.7333,
    "m_camp_lng": -118.0667
  },
  {
    "lastaddress": "San Francisco",
    "m_originalstate": "CA",
    "w_assemblycenter": "Santa Anita",
    "m_camp": "Heartmountain",
    "pop": 26,
    "lastaddress_lat": 37.7562,
    "lastaddress_lng": -122.443,
    "m_camp_lat": 44.5167,
    "m_camp_lng": -109.05
  },
  {
    "lastaddress": "Los Angeles",
    "m_originalstate": "CA",
    "w_assemblycenter": "Santa Anita",
    "m_camp": "Topaz",
    "pop": 26,
    "lastaddress_lat": 34.1139,
    "lastaddress_lng": -118.4068,
    "m_camp_lat": 39.3833,
    "m_camp_lng": -112.7167
  },
  {
    "lastaddress": "Spokane",
    "m_originalstate": "WA",
    "w_assemblycenter": "Puyallup",
    "m_camp": "Minidoka",
    "pop": 25,
    "lastaddress_lat": 47.6671,
    "lastaddress_lng": -117.433,
    "m_camp_lat": 42.6667,
    "m_camp_lng": -114.2333
  },
  {
    "lastaddress": "South Gate",
    "m_originalstate": "CA",
    "w_assemblycenter": "Turlock",
    "m_camp": "Gilariver",
    "pop": 25,
    "lastaddress_lat": 33.9448,
    "lastaddress_lng": -118.1926,
    "m_camp_lat": 32.1667,
    "m_camp_lng": -111.8667
  },
  {
    "lastaddress": "Sunnyvale",
    "m_originalstate": "CA",
    "w_assemblycenter": "Fresno",
    "m_camp": "Jerome",
    "pop": 25,
    "lastaddress_lat": 37.3836,
    "lastaddress_lng": -122.0256,
    "m_camp_lat": 33.3833,
    "m_camp_lng": -91.4667
  },
  {
    "lastaddress": "Napa",
    "m_originalstate": "CA",
    "w_assemblycenter": "Merced",
    "m_camp": "Amache",
    "pop": 25,
    "lastaddress_lat": 38.2976,
    "lastaddress_lng": -122.3011,
    "m_camp_lat": 38.05,
    "m_camp_lng": -102.3
  },
  {
    "lastaddress": "Mesa",
    "m_originalstate": "AZ",
    "w_assemblycenter": "Mayer",
    "m_camp": "Poston",
    "pop": 25,
    "lastaddress_lat": 33.4017,
    "lastaddress_lng": -111.718,
    "m_camp_lat": 34.15,
    "m_camp_lng": -114.2833
  },
  {
    "lastaddress": "Whittier",
    "m_originalstate": "CA",
    "w_assemblycenter": "Santa Anita",
    "m_camp": "Poston",
    "pop": 25,
    "lastaddress_lat": 33.9678,
    "lastaddress_lng": -118.0188,
    "m_camp_lat": 34.15,
    "m_camp_lng": -114.2833
  },
  {
    "lastaddress": "San Francisco",
    "m_originalstate": "CA",
    "w_assemblycenter": "Manzanar",
    "m_camp": "Manzanar",
    "pop": 25,
    "lastaddress_lat": 37.7562,
    "lastaddress_lng": -122.443,
    "m_camp_lat": 36.7333,
    "m_camp_lng": -118.0667
  },
  {
    "lastaddress": "Sacramento",
    "m_originalstate": "CA",
    "w_assemblycenter": "Stockton",
    "m_camp": "Rohwer",
    "pop": 24,
    "lastaddress_lat": 38.5667,
    "lastaddress_lng": -121.4683,
    "m_camp_lat": 33.75,
    "m_camp_lng": -91.2667
  },
  {
    "lastaddress": "Signal Hill",
    "m_originalstate": "CA",
    "w_assemblycenter": "None",
    "m_camp": "Gilariver",
    "pop": 24,
    "lastaddress_lat": 33.8029,
    "lastaddress_lng": -118.1681,
    "m_camp_lat": 32.1667,
    "m_camp_lng": -111.8667
  },
  {
    "lastaddress": "Santa Clara",
    "m_originalstate": "CA",
    "w_assemblycenter": "None",
    "m_camp": "Tulelake",
    "pop": 24,
    "lastaddress_lat": 37.3645,
    "lastaddress_lng": -121.968,
    "m_camp_lat": 41.8833,
    "m_camp_lng": -121.3667
  },
  {
    "lastaddress": "Sacramento",
    "m_originalstate": "CA",
    "w_assemblycenter": "Turlock",
    "m_camp": "Gilariver",
    "pop": 24,
    "lastaddress_lat": 38.5667,
    "lastaddress_lng": -121.4683,
    "m_camp_lat": 32.1667,
    "m_camp_lng": -111.8667
  },
  {
    "lastaddress": "Lawndale",
    "m_originalstate": "CA",
    "w_assemblycenter": "Merced",
    "m_camp": "Amache",
    "pop": 24,
    "lastaddress_lat": 33.8884,
    "lastaddress_lng": -118.3531,
    "m_camp_lat": 38.05,
    "m_camp_lng": -102.3
  },
  {
    "lastaddress": "Oroville",
    "m_originalstate": "CA",
    "w_assemblycenter": "None",
    "m_camp": "Tulelake",
    "pop": 23,
    "lastaddress_lat": 39.4999,
    "lastaddress_lng": -121.5634,
    "m_camp_lat": 41.8833,
    "m_camp_lng": -121.3667
  },
  {
    "lastaddress": "Willows",
    "m_originalstate": "CA",
    "w_assemblycenter": "None",
    "m_camp": "Tulelake",
    "pop": 23,
    "lastaddress_lat": 39.5149,
    "lastaddress_lng": -122.1995,
    "m_camp_lat": 41.8833,
    "m_camp_lng": -121.3667
  },
  {
    "lastaddress": "Healdsburg",
    "m_originalstate": "CA",
    "w_assemblycenter": "Merced",
    "m_camp": "Amache",
    "pop": 23,
    "lastaddress_lat": 38.6229,
    "lastaddress_lng": -122.8651,
    "m_camp_lat": 38.05,
    "m_camp_lng": -102.3
  },
  {
    "lastaddress": "Torrance",
    "m_originalstate": "CA",
    "w_assemblycenter": "Fresno",
    "m_camp": "Jerome",
    "pop": 23,
    "lastaddress_lat": 33.8346,
    "lastaddress_lng": -118.3417,
    "m_camp_lat": 33.3833,
    "m_camp_lng": -91.4667
  },
  {
    "lastaddress": "Oakland",
    "m_originalstate": "CA",
    "w_assemblycenter": "Tanforan",
    "m_camp": "Tulelake",
    "pop": 23,
    "lastaddress_lat": 37.7903,
    "lastaddress_lng": -122.2165,
    "m_camp_lat": 41.8833,
    "m_camp_lng": -121.3667
  },
  {
    "lastaddress": "Fullerton",
    "m_originalstate": "CA",
    "w_assemblycenter": "Santa Anita",
    "m_camp": "Gilariver",
    "pop": 23,
    "lastaddress_lat": 33.8841,
    "lastaddress_lng": -117.9279,
    "m_camp_lat": 32.1667,
    "m_camp_lng": -111.8667
  },
  {
    "lastaddress": "Isleton",
    "m_originalstate": "CA",
    "w_assemblycenter": "Stockton",
    "m_camp": "Rohwer",
    "pop": 23,
    "lastaddress_lat": 38.1617,
    "lastaddress_lng": -121.6051,
    "m_camp_lat": 33.75,
    "m_camp_lng": -91.2667
  },
  {
    "lastaddress": "Hoquiam",
    "m_originalstate": "WA",
    "w_assemblycenter": "None",
    "m_camp": "Tulelake",
    "pop": 22,
    "lastaddress_lat": 46.9863,
    "lastaddress_lng": -123.9022,
    "m_camp_lat": 41.8833,
    "m_camp_lng": -121.3667
  },
  {
    "lastaddress": "San Jose",
    "m_originalstate": "CA",
    "w_assemblycenter": "Tanforan",
    "m_camp": "Topaz",
    "pop": 22,
    "lastaddress_lat": 37.3019,
    "lastaddress_lng": -121.8486,
    "m_camp_lat": 39.3833,
    "m_camp_lng": -112.7167
  },
  {
    "lastaddress": "Riverside",
    "m_originalstate": "CA",
    "w_assemblycenter": "Manzanar",
    "m_camp": "Manzanar",
    "pop": 22,
    "lastaddress_lat": 33.9381,
    "lastaddress_lng": -117.3948,
    "m_camp_lat": 36.7333,
    "m_camp_lng": -118.0667
  },
  {
    "lastaddress": "Coalinga",
    "m_originalstate": "CA",
    "w_assemblycenter": "Fresno",
    "m_camp": "Jerome",
    "pop": 22,
    "lastaddress_lat": 36.143,
    "lastaddress_lng": -120.3262,
    "m_camp_lat": 33.3833,
    "m_camp_lng": -91.4667
  },
  {
    "lastaddress": "City_Unregistered",
    "m_originalstate": "Not Found",
    "w_assemblycenter": "None",
    "m_camp": "Jerome",
    "pop": 22,
    "lastaddress_lat": 0,
    "lastaddress_lng": 0,
    "m_camp_lat": 33.3833,
    "m_camp_lng": -91.4667
  },
  {
    "lastaddress": "Maui",
    "m_originalstate": "HI",
    "w_assemblycenter": "None",
    "m_camp": "Topaz",
    "pop": 21,
    "lastaddress_lat": 20.8,
    "lastaddress_lng": -156.333333,
    "m_camp_lat": 39.3833,
    "m_camp_lng": -112.7167
  },
  {
    "lastaddress": "Lompoc",
    "m_originalstate": "CA",
    "w_assemblycenter": "None",
    "m_camp": "Poston",
    "pop": 21,
    "lastaddress_lat": 34.6618,
    "lastaddress_lng": -120.4714,
    "m_camp_lat": 34.15,
    "m_camp_lng": -114.2833
  },
  {
    "lastaddress": "Ojai",
    "m_originalstate": "CA",
    "w_assemblycenter": "None",
    "m_camp": "Poston",
    "pop": 21,
    "lastaddress_lat": 34.4487,
    "lastaddress_lng": -119.2469,
    "m_camp_lat": 34.15,
    "m_camp_lng": -114.2833
  },
  {
    "lastaddress": "City_Unregistered",
    "m_originalstate": "Not Found",
    "w_assemblycenter": "Santa Anita",
    "m_camp": "Jerome",
    "pop": 21,
    "lastaddress_lat": 0,
    "lastaddress_lng": 0,
    "m_camp_lat": 33.3833,
    "m_camp_lng": -91.4667
  },
  {
    "lastaddress": "Salinas",
    "m_originalstate": "CA",
    "w_assemblycenter": "Tanforan",
    "m_camp": "Topaz",
    "pop": 21,
    "lastaddress_lat": 36.6884,
    "lastaddress_lng": -121.6317,
    "m_camp_lat": 39.3833,
    "m_camp_lng": -112.7167
  },
  {
    "lastaddress": "Lodi",
    "m_originalstate": "CA",
    "w_assemblycenter": "Stockton",
    "m_camp": "Gilariver",
    "pop": 21,
    "lastaddress_lat": 38.1218,
    "lastaddress_lng": -121.2932,
    "m_camp_lat": 32.1667,
    "m_camp_lng": -111.8667
  },
  {
    "lastaddress": "Santa Maria",
    "m_originalstate": "CA",
    "w_assemblycenter": "None",
    "m_camp": "Gilariver",
    "pop": 21,
    "lastaddress_lat": 34.9334,
    "lastaddress_lng": -120.4432,
    "m_camp_lat": 32.1667,
    "m_camp_lng": -111.8667
  },
  {
    "lastaddress": "Everett",
    "m_originalstate": "WA",
    "w_assemblycenter": "None",
    "m_camp": "Tulelake",
    "pop": 20,
    "lastaddress_lat": 47.9525,
    "lastaddress_lng": -122.1669,
    "m_camp_lat": 41.8833,
    "m_camp_lng": -121.3667
  },
  {
    "lastaddress": "Seattle",
    "m_originalstate": "WA",
    "w_assemblycenter": "Portland",
    "m_camp": "Minidoka",
    "pop": 20,
    "lastaddress_lat": 47.6211,
    "lastaddress_lng": -122.3244,
    "m_camp_lat": 42.6667,
    "m_camp_lng": -114.2333
  },
  {
    "lastaddress": "San Jose",
    "m_originalstate": "CA",
    "w_assemblycenter": "Turlock",
    "m_camp": "Gilariver",
    "pop": 20,
    "lastaddress_lat": 37.3019,
    "lastaddress_lng": -121.8486,
    "m_camp_lat": 32.1667,
    "m_camp_lng": -111.8667
  },
  {
    "lastaddress": "Signal Hill",
    "m_originalstate": "CA",
    "w_assemblycenter": "Santa Anita",
    "m_camp": "Poston",
    "pop": 20,
    "lastaddress_lat": 33.8029,
    "lastaddress_lng": -118.1681,
    "m_camp_lat": 34.15,
    "m_camp_lng": -114.2833
  },
  {
    "lastaddress": "City_Unregistered",
    "m_originalstate": "Not Found",
    "w_assemblycenter": "Fresno",
    "m_camp": "Jerome",
    "pop": 20,
    "lastaddress_lat": 0,
    "lastaddress_lng": 0,
    "m_camp_lat": 33.3833,
    "m_camp_lng": -91.4667
  },
  {
    "lastaddress": "Sacramento",
    "m_originalstate": "CA",
    "w_assemblycenter": "Pinedale",
    "m_camp": "Tulelake",
    "pop": 20,
    "lastaddress_lat": 38.5667,
    "lastaddress_lng": -121.4683,
    "m_camp_lat": 41.8833,
    "m_camp_lng": -121.3667
  },
  {
    "lastaddress": "San Francisco",
    "m_originalstate": "CA",
    "w_assemblycenter": "Santa Anita",
    "m_camp": "Gilariver",
    "pop": 20,
    "lastaddress_lat": 37.7562,
    "lastaddress_lng": -122.443,
    "m_camp_lat": 32.1667,
    "m_camp_lng": -111.8667
  },
  {
    "lastaddress": "Yuba City",
    "m_originalstate": "CA",
    "w_assemblycenter": "None",
    "m_camp": "Tulelake",
    "pop": 20,
    "lastaddress_lat": 39.1357,
    "lastaddress_lng": -121.6381,
    "m_camp_lat": 41.8833,
    "m_camp_lng": -121.3667
  },
  {
    "lastaddress": "Whittier",
    "m_originalstate": "CA",
    "w_assemblycenter": "Fresno",
    "m_camp": "Jerome",
    "pop": 19,
    "lastaddress_lat": 33.9678,
    "lastaddress_lng": -118.0188,
    "m_camp_lat": 33.3833,
    "m_camp_lng": -91.4667
  },
  {
    "lastaddress": "Woodland",
    "m_originalstate": "CA",
    "w_assemblycenter": "Sacramento (Walerga)",
    "m_camp": "Tulelake",
    "pop": 19,
    "lastaddress_lat": 38.6712,
    "lastaddress_lng": -121.75,
    "m_camp_lat": 41.8833,
    "m_camp_lng": -121.3667
  },
  {
    "lastaddress": "South Gate",
    "m_originalstate": "CA",
    "w_assemblycenter": "Marysville (Arboga)",
    "m_camp": "Tulelake",
    "pop": 19,
    "lastaddress_lat": 33.9448,
    "lastaddress_lng": -118.1926,
    "m_camp_lat": 41.8833,
    "m_camp_lng": -121.3667
  },
  {
    "lastaddress": "Morgan Hill",
    "m_originalstate": "CA",
    "w_assemblycenter": "Turlock",
    "m_camp": "Gilariver",
    "pop": 19,
    "lastaddress_lat": 37.1326,
    "lastaddress_lng": -121.6417,
    "m_camp_lat": 32.1667,
    "m_camp_lng": -111.8667
  },
  {
    "lastaddress": "Oakland",
    "m_originalstate": "CA",
    "w_assemblycenter": "None",
    "m_camp": "Topaz",
    "pop": 19,
    "lastaddress_lat": 37.7903,
    "lastaddress_lng": -122.2165,
    "m_camp_lat": 39.3833,
    "m_camp_lng": -112.7167
  },
  {
    "lastaddress": "Salinas",
    "m_originalstate": "CA",
    "w_assemblycenter": "Marysville (Arboga)",
    "m_camp": "Tulelake",
    "pop": 19,
    "lastaddress_lat": 36.6884,
    "lastaddress_lng": -121.6317,
    "m_camp_lat": 41.8833,
    "m_camp_lng": -121.3667
  },
  {
    "lastaddress": "Shelton",
    "m_originalstate": "WA",
    "w_assemblycenter": "None",
    "m_camp": "Tulelake",
    "pop": 19,
    "lastaddress_lat": 47.2186,
    "lastaddress_lng": -123.112,
    "m_camp_lat": 41.8833,
    "m_camp_lng": -121.3667
  },
  {
    "lastaddress": "San Mateo",
    "m_originalstate": "CA",
    "w_assemblycenter": "Turlock",
    "m_camp": "Gilariver",
    "pop": 19,
    "lastaddress_lat": 37.5521,
    "lastaddress_lng": -122.3122,
    "m_camp_lat": 32.1667,
    "m_camp_lng": -111.8667
  },
  {
    "lastaddress": "Newport Beach",
    "m_originalstate": "CA",
    "w_assemblycenter": "Santa Anita",
    "m_camp": "Jerome",
    "pop": 19,
    "lastaddress_lat": 33.6151,
    "lastaddress_lng": -117.8669,
    "m_camp_lat": 33.3833,
    "m_camp_lng": -91.4667
  },
  {
    "lastaddress": "Sunnyvale",
    "m_originalstate": "CA",
    "w_assemblycenter": "None",
    "m_camp": "Poston",
    "pop": 18,
    "lastaddress_lat": 37.3836,
    "lastaddress_lng": -122.0256,
    "m_camp_lat": 34.15,
    "m_camp_lng": -114.2833
  },
  {
    "lastaddress": "Pittsburg",
    "m_originalstate": "CA",
    "w_assemblycenter": "Turlock",
    "m_camp": "Gilariver",
    "pop": 18,
    "lastaddress_lat": 38.0182,
    "lastaddress_lng": -121.8964,
    "m_camp_lat": 32.1667,
    "m_camp_lng": -111.8667
  },
  {
    "lastaddress": "Los Angeles",
    "m_originalstate": "CA",
    "w_assemblycenter": "Tanforan",
    "m_camp": "Topaz",
    "pop": 18,
    "lastaddress_lat": 34.1139,
    "lastaddress_lng": -118.4068,
    "m_camp_lat": 39.3833,
    "m_camp_lng": -112.7167
  },
  {
    "lastaddress": "Selma",
    "m_originalstate": "CA",
    "w_assemblycenter": "None",
    "m_camp": "Manzanar",
    "pop": 18,
    "lastaddress_lat": 36.5715,
    "lastaddress_lng": -119.6143,
    "m_camp_lat": 36.7333,
    "m_camp_lng": -118.0667
  },
  {
    "lastaddress": "San Francisco",
    "m_originalstate": "CA",
    "w_assemblycenter": "Tanforan",
    "m_camp": "Manzanar",
    "pop": 18,
    "lastaddress_lat": 37.7562,
    "lastaddress_lng": -122.443,
    "m_camp_lat": 36.7333,
    "m_camp_lng": -118.0667
  },
  {
    "lastaddress": "San Francisco",
    "m_originalstate": "CA",
    "w_assemblycenter": "None",
    "m_camp": "Topaz",
    "pop": 18,
    "lastaddress_lat": 37.7562,
    "lastaddress_lng": -122.443,
    "m_camp_lat": 39.3833,
    "m_camp_lng": -112.7167
  },
  {
    "lastaddress": "City_Unregistered",
    "m_originalstate": "Not Found",
    "w_assemblycenter": "Tulare",
    "m_camp": "Gilariver",
    "pop": 18,
    "lastaddress_lat": 0,
    "lastaddress_lng": 0,
    "m_camp_lat": 32.1667,
    "m_camp_lng": -111.8667
  },
  {
    "lastaddress": "Tustin",
    "m_originalstate": "CA",
    "w_assemblycenter": "Manzanar",
    "m_camp": "Manzanar",
    "pop": 18,
    "lastaddress_lat": 33.7309,
    "lastaddress_lng": -117.8106,
    "m_camp_lat": 36.7333,
    "m_camp_lng": -118.0667
  },
  {
    "lastaddress": "Carmel-By-The-Sea",
    "m_originalstate": "CA",
    "w_assemblycenter": "Salinas",
    "m_camp": "Poston",
    "pop": 17,
    "lastaddress_lat": 36.5528,
    "lastaddress_lng": -121.9222,
    "m_camp_lat": 34.15,
    "m_camp_lng": -114.2833
  },
  {
    "lastaddress": "San Diego",
    "m_originalstate": "CA",
    "w_assemblycenter": "Santa Anita",
    "m_camp": "Jerome",
    "pop": 17,
    "lastaddress_lat": 32.8312,
    "lastaddress_lng": -117.1225,
    "m_camp_lat": 33.3833,
    "m_camp_lng": -91.4667
  },
  {
    "lastaddress": "South Gate",
    "m_originalstate": "CA",
    "w_assemblycenter": "None",
    "m_camp": "Manzanar",
    "pop": 17,
    "lastaddress_lat": 33.9448,
    "lastaddress_lng": -118.1926,
    "m_camp_lat": 36.7333,
    "m_camp_lng": -118.0667
  },
  {
    "lastaddress": "City_Unregistered",
    "m_originalstate": "Not Found",
    "w_assemblycenter": "None",
    "m_camp": "Rohwer",
    "pop": 17,
    "lastaddress_lat": 0,
    "lastaddress_lng": 0,
    "m_camp_lat": 33.75,
    "m_camp_lng": -91.2667
  },
  {
    "lastaddress": "City_Unregistered",
    "m_originalstate": "Not Found",
    "w_assemblycenter": "Pomona",
    "m_camp": "Heartmountain",
    "pop": 17,
    "lastaddress_lat": 0,
    "lastaddress_lng": 0,
    "m_camp_lat": 44.5167,
    "m_camp_lng": -109.05
  },
  {
    "lastaddress": "San Diego",
    "m_originalstate": "CA",
    "w_assemblycenter": "Manzanar",
    "m_camp": "Manzanar",
    "pop": 17,
    "lastaddress_lat": 32.8312,
    "lastaddress_lng": -117.1225,
    "m_camp_lat": 36.7333,
    "m_camp_lng": -118.0667
  },
  {
    "lastaddress": "Watsonville",
    "m_originalstate": "CA",
    "w_assemblycenter": "None",
    "m_camp": "Poston",
    "pop": 17,
    "lastaddress_lat": 36.9206,
    "lastaddress_lng": -121.7706,
    "m_camp_lat": 34.15,
    "m_camp_lng": -114.2833
  },
  {
    "lastaddress": "San Francisco",
    "m_originalstate": "CA",
    "w_assemblycenter": "Tanforan",
    "m_camp": "Tulelake",
    "pop": 17,
    "lastaddress_lat": 37.7562,
    "lastaddress_lng": -122.443,
    "m_camp_lat": 41.8833,
    "m_camp_lng": -121.3667
  },
  {
    "lastaddress": "Stockton",
    "m_originalstate": "CA",
    "w_assemblycenter": "Stockton",
    "m_camp": "Minidoka",
    "pop": 17,
    "lastaddress_lat": 37.9765,
    "lastaddress_lng": -121.3109,
    "m_camp_lat": 42.6667,
    "m_camp_lng": -114.2333
  },
  {
    "lastaddress": "Tustin",
    "m_originalstate": "CA",
    "w_assemblycenter": "Santa Anita",
    "m_camp": "Rohwer",
    "pop": 16,
    "lastaddress_lat": 33.7309,
    "lastaddress_lng": -117.8106,
    "m_camp_lat": 33.75,
    "m_camp_lng": -91.2667
  },