[
  {
    "lastaddress": "Los Angeles",
    "m_originalstate": "CA",
    "m_camp": "Manzanar",
    "pop": 7238,
    "lastaddress_lat": 34.1139,
    "lastaddress_lng": -118.4068,
    "m_camp_lat": 36.7333,
    "m_camp_lng": -118.0667
  },
  {
    "lastaddress": "Seattle",
    "m_originalstate": "WA",
    "m_camp": "Minidoka",
    "pop": 5786,
    "lastaddress_lat": 47.6211,
    "lastaddress_lng": -122.3244,
    "m_camp_lat": 42.6667,
    "m_camp_lng": -114.2333
  },
  {
    "lastaddress": "Los Angeles",
    "m_originalstate": "CA",
    "m_camp": "Heartmountain",
    "pop": 4930,
    "lastaddress_lat": 34.1139,
    "lastaddress_lng": -118.4068,
    "m_camp_lat": 44.5167,
    "m_camp_lng": -109.05
  },
  {
    "lastaddress": "Sacramento",
    "m_originalstate": "CA",
    "m_camp": "Tulelake",
    "pop": 3920,
    "lastaddress_lat": 38.5667,
    "lastaddress_lng": -121.4683,
    "m_camp_lat": 41.8833,
    "m_camp_lng": -121.3667
  },
  {
    "lastaddress": "San Francisco",
    "m_originalstate": "CA",
    "m_camp": "Topaz",
    "pop": 3360,
    "lastaddress_lat": 37.7562,
    "lastaddress_lng": -122.443,
    "m_camp_lat": 39.3833,
    "m_camp_lng": -112.7167
  },
  {
    "lastaddress": "Los Angeles",
    "m_originalstate": "CA",
    "m_camp": "Amache",
    "pop": 2655,
    "lastaddress_lat": 34.1139,
    "lastaddress_lng": -118.4068,
    "m_camp_lat": 38.05,
    "m_camp_lng": -102.3
  },
  {
    "lastaddress": "Oakland",
    "m_originalstate": "CA",
    "m_camp": "Topaz",
    "pop": 2570,
    "lastaddress_lat": 37.7903,
    "lastaddress_lng": -122.2165,
    "m_camp_lat": 39.3833,
    "m_camp_lng": -112.7167
  },
  {
    "lastaddress": "Los Angeles",
    "m_originalstate": "CA",
    "m_camp": "Poston",
    "pop": 2344,
    "lastaddress_lat": 34.1139,
    "lastaddress_lng": -118.4068,
    "m_camp_lat": 34.15,
    "m_camp_lng": -114.2833
  },
  {
    "lastaddress": "Los Angeles",
    "m_originalstate": "CA",
    "m_camp": "Gilariver",
    "pop": 2330,
    "lastaddress_lat": 34.1139,
    "lastaddress_lng": -118.4068,
    "m_camp_lat": 32.1667,
    "m_camp_lng": -111.8667
  },
  {
    "lastaddress": "Spokane",
    "m_originalstate": "WA",
    "m_camp": "Minidoka",
    "pop": 2232,
    "lastaddress_lat": 47.6671,
    "lastaddress_lng": -117.433,
    "m_camp_lat": 42.6667,
    "m_camp_lng": -114.2333
  },
  {
    "lastaddress": "Los Angeles",
    "m_originalstate": "CA",
    "m_camp": "Rohwer",
    "pop": 2153,
    "lastaddress_lat": 34.1139,
    "lastaddress_lng": -118.4068,
    "m_camp_lat": 33.75,
    "m_camp_lng": -91.2667
  },
  {
    "lastaddress": "Stockton",
    "m_originalstate": "CA",
    "m_camp": "Rohwer",
    "pop": 2103,
    "lastaddress_lat": 37.9765,
    "lastaddress_lng": -121.3109,
    "m_camp_lat": 33.75,
    "m_camp_lng": -91.2667
  },
  {
    "lastaddress": "Rocklin",
    "m_originalstate": "CA",
    "m_camp": "Tulelake",
    "pop": 1489,
    "lastaddress_lat": 38.8075,
    "lastaddress_lng": -121.2488,
    "m_camp_lat": 41.8833,
    "m_camp_lng": -121.3667
  },
  {
    "lastaddress": "Fresno",
    "m_originalstate": "CA",
    "m_camp": "Jerome",
    "pop": 1460,
    "lastaddress_lat": 36.7831,
    "lastaddress_lng": -119.7941,
    "m_camp_lat": 33.3833,
    "m_camp_lng": -91.4667
  },
  {
    "lastaddress": "Renton",
    "m_originalstate": "WA",
    "m_camp": "Tulelake",
    "pop": 1376,
    "lastaddress_lat": 47.4784,
    "lastaddress_lng": -122.1919,
    "m_camp_lat": 41.8833,
    "m_camp_lng": -121.3667
  },
  {
    "lastaddress": "Salinas",
    "m_originalstate": "CA",
    "m_camp": "Poston",
    "pop": 1341,
    "lastaddress_lat": 36.6884,
    "lastaddress_lng": -121.6317,
    "m_camp_lat": 34.15,
    "m_camp_lng": -114.2833
  },
  {
    "lastaddress": "San Joaquin",
    "m_originalstate": "CA",
    "m_camp": "Gilariver",
    "pop": 1173,
    "lastaddress_lat": 36.6057,
    "lastaddress_lng": -120.1897,
    "m_camp_lat": 32.1667,
    "m_camp_lng": -111.8667
  },
  {
    "lastaddress": "Selma",
    "m_originalstate": "CA",
    "m_camp": "Poston",
    "pop": 1171,
    "lastaddress_lat": 36.5715,
    "lastaddress_lng": -119.6143,
    "m_camp_lat": 34.15,
    "m_camp_lng": -114.2833
  },
  {
    "lastaddress": "Spokane",
    "m_originalstate": "WA",
    "m_camp": "Tulelake",
    "pop": 1112,
    "lastaddress_lat": 47.6671,
    "lastaddress_lng": -117.433,
    "m_camp_lat": 41.8833,
    "m_camp_lng": -121.3667
  },
  {
    "lastaddress": "Watsonville",
    "m_originalstate": "CA",
    "m_camp": "Poston",
    "pop": 1098,
    "lastaddress_lat": 36.9206,
    "lastaddress_lng": -121.7706,
    "m_camp_lat": 34.15,
    "m_camp_lng": -114.2833
  },
  {
    "lastaddress": "Los Angeles",
    "m_originalstate": "CA",
    "m_camp": "Jerome",
    "pop": 1074,
    "lastaddress_lat": 34.1139,
    "lastaddress_lng": -118.4068,
    "m_camp_lat": 33.3833,
    "m_camp_lng": -91.4667
  },
  {
    "lastaddress": "San Jose",
    "m_originalstate": "CA",
    "m_camp": "Heartmountain",
    "pop": 1044,
    "lastaddress_lat": 37.3019,
    "lastaddress_lng": -121.8486,
    "m_camp_lat": 44.5167,
    "m_camp_lng": -109.05
  },
  {
    "lastaddress": "South Gate",
    "m_originalstate": "CA",
    "m_camp": "Gilariver",
    "pop": 1032,
    "lastaddress_lat": 33.9448,
    "lastaddress_lng": -118.1926,
    "m_camp_lat": 32.1667,
    "m_camp_lng": -111.8667
  },
  {
    "lastaddress": "Isleton",
    "m_originalstate": "CA",
    "m_camp": "Tulelake",
    "pop": 916,
    "lastaddress_lat": 38.1617,
    "lastaddress_lng": -121.6051,
    "m_camp_lat": 41.8833,
    "m_camp_lng": -121.3667
  },
  {
    "lastaddress": "Sunnyvale",
    "m_originalstate": "CA",
    "m_camp": "Heartmountain",
    "pop": 908,
    "lastaddress_lat": 37.3836,
    "lastaddress_lng": -122.0256,
    "m_camp_lat": 44.5167,
    "m_camp_lng": -109.05
  },
  {
    "lastaddress": "Torrance",
    "m_originalstate": "CA",
    "m_camp": "Rohwer",
    "pop": 903,
    "lastaddress_lat": 33.8346,
    "lastaddress_lng": -118.3417,
    "m_camp_lat": 33.75,
    "m_camp_lng": -91.2667
  },
  {
    "lastaddress": "South Gate",
    "m_originalstate": "CA",
    "m_camp": "Jerome",
    "pop": 901,
    "lastaddress_lat": 33.9448,
    "lastaddress_lng": -118.1926,
    "m_camp_lat": 33.3833,
    "m_camp_lng": -91.4667
  },
  {
    "lastaddress": "Tulare",
    "m_originalstate": "CA",
    "m_camp": "Gilariver",
    "pop": 895,
    "lastaddress_lat": 36.1996,
    "lastaddress_lng": -119.34,
    "m_camp_lat": 32.1667,
    "m_camp_lng": -111.8667
  },
  {
    "lastaddress": "Lodi",
    "m_originalstate": "CA",
    "m_camp": "Rohwer",
    "pop": 889,
    "lastaddress_lat": 38.1218,
    "lastaddress_lng": -121.2932,
    "m_camp_lat": 33.75,
    "m_camp_lng": -91.2667
  },
  {
    "lastaddress": "South Gate",
    "m_originalstate": "CA",
    "m_camp": "Manzanar",
    "pop": 854,
    "lastaddress_lat": 33.9448,
    "lastaddress_lng": -118.1926,
    "m_camp_lat": 36.7333,
    "m_camp_lng": -118.0667
  },
  {
    "lastaddress": "Tacoma",
    "m_originalstate": "WA",
    "m_camp": "Tulelake",
    "pop": 841,
    "lastaddress_lat": 47.2431,
    "lastaddress_lng": -122.4531,
    "m_camp_lat": 41.8833,
    "m_camp_lng": -121.3667
  },
  {
    "lastaddress": "El Centro",
    "m_originalstate": "CA",
    "m_camp": "Poston",
    "pop": 832,
    "lastaddress_lat": 32.7867,
    "lastaddress_lng": -115.5586,
    "m_camp_lat": 34.15,
    "m_camp_lng": -114.2833
  },
  {
    "lastaddress": "Woodlake",
    "m_originalstate": "CA",
    "m_camp": "Poston",
    "pop": 760,
    "lastaddress_lat": 36.4124,
    "lastaddress_lng": -119.0999,
    "m_camp_lat": 34.15,
    "m_camp_lng": -114.2833
  },
  {
    "lastaddress": "Seattle",
    "m_originalstate": "WA",
    "m_camp": "Tulelake",
    "pop": 713,
    "lastaddress_lat": 47.6211,
    "lastaddress_lng": -122.3244,
    "m_camp_lat": 41.8833,
    "m_camp_lng": -121.3667
  },
  {
    "lastaddress": "San Diego",
    "m_originalstate": "CA",
    "m_camp": "Poston",
    "pop": 688,
    "lastaddress_lat": 32.8312,
    "lastaddress_lng": -117.1225,
    "m_camp_lat": 34.15,
    "m_camp_lng": -114.2833
  },
  {
    "lastaddress": "Torrance",
    "m_originalstate": "CA",
    "m_camp": "Jerome",
    "pop": 688,
    "lastaddress_lat": 33.8346,
    "lastaddress_lng": -118.3417,
    "m_camp_lat": 33.3833,
    "m_camp_lng": -91.4667
  },
  {
    "lastaddress": "Vacaville",
    "m_originalstate": "CA",
    "m_camp": "Gilariver",
    "pop": 676,
    "lastaddress_lat": 38.359,
    "lastaddress_lng": -121.968,
    "m_camp_lat": 32.1667,
    "m_camp_lng": -111.8667
  },
  {
    "lastaddress": "San Francisco",
    "m_originalstate": "CA",
    "m_camp": "Heartmountain",
    "pop": 673,
    "lastaddress_lat": 37.7562,
    "lastaddress_lng": -122.443,
    "m_camp_lat": 44.5167,
    "m_camp_lng": -109.05
  },
  {
    "lastaddress": "Torrance",
    "m_originalstate": "CA",
    "m_camp": "Gilariver",
    "pop": 660,
    "lastaddress_lat": 33.8346,
    "lastaddress_lng": -118.3417,
    "m_camp_lat": 32.1667,
    "m_camp_lng": -111.8667
  },
  {
    "lastaddress": "Lindsay",
    "m_originalstate": "CA",
    "m_camp": "Poston",
    "pop": 613,
    "lastaddress_lat": 36.2082,
    "lastaddress_lng": -119.0897,
    "m_camp_lat": 34.15,
    "m_camp_lng": -114.2833
  },
  {
    "lastaddress": "Whittier",
    "m_originalstate": "CA",
    "m_camp": "Gilariver",
    "pop": 610,
    "lastaddress_lat": 33.9678,
    "lastaddress_lng": -118.0188,
    "m_camp_lat": 32.1667,
    "m_camp_lng": -111.8667
  },
  {
    "lastaddress": "Whittier",
    "m_originalstate": "CA",
    "m_camp": "Rohwer",
    "pop": 601,
    "lastaddress_lat": 33.9678,
    "lastaddress_lng": -118.0188,
    "m_camp_lat": 33.75,
    "m_camp_lng": -91.2667
  },
  {
    "lastaddress": "Stockton",
    "m_originalstate": "CA",
    "m_camp": "Gilariver",
    "pop": 595,
    "lastaddress_lat": 37.9765,
    "lastaddress_lng": -121.3109,
    "m_camp_lat": 32.1667,
    "m_camp_lng": -111.8667
  },
  {
    "lastaddress": "Tukwila",
    "m_originalstate": "WA",
    "m_camp": "Tulelake",
    "pop": 591,
    "lastaddress_lat": 47.4749,
    "lastaddress_lng": -122.2727,
    "m_camp_lat": 41.8833,
    "m_camp_lng": -121.3667
  },
  {
    "lastaddress": "Tulare",
    "m_originalstate": "CA",
    "m_camp": "Poston",
    "pop": 588,
    "lastaddress_lat": 36.1996,
    "lastaddress_lng": -119.34,
    "m_camp_lat": 34.15,
    "m_camp_lng": -114.2833
  },
  {
    "lastaddress": "Torrance",
    "m_originalstate": "CA",
    "m_camp": "Manzanar",
    "pop": 578,
    "lastaddress_lat": 33.8346,
    "lastaddress_lng": -118.3417,
    "m_camp_lat": 36.7333,
    "m_camp_lng": -118.0667
  },
  {
    "lastaddress": "Isleton",
    "m_originalstate": "CA",
    "m_camp": "Jerome",
    "pop": 563,
    "lastaddress_lat": 38.1617,
    "lastaddress_lng": -121.6051,
    "m_camp_lat": 33.3833,
    "m_camp_lng": -91.4667
  },
  {
    "lastaddress": "Walnut Creek",
    "m_originalstate": "CA",
    "m_camp": "Gilariver",
    "pop": 557,
    "lastaddress_lat": 37.9024,
    "lastaddress_lng": -122.0398,
    "m_camp_lat": 32.1667,
    "m_camp_lng": -111.8667
  },
  {
    "lastaddress": "Zillah",
    "m_originalstate": "WA",
    "m_camp": "Heartmountain",
    "pop": 548,
    "lastaddress_lat": 46.4084,
    "lastaddress_lng": -120.2725,
    "m_camp_lat": 44.5167,
    "m_camp_lng": -109.05
  },
  {
    "lastaddress": "Pleasanton",
    "m_originalstate": "CA",
    "m_camp": "Topaz",
    "pop": 545,
    "lastaddress_lat": 37.6663,
    "lastaddress_lng": -121.8805,
    "m_camp_lat": 39.3833,
    "m_camp_lng": -112.7167
  },
  {
    "lastaddress": "Oceanside",
    "m_originalstate": "CA",
    "m_camp": "Poston",
    "pop": 542,
    "lastaddress_lat": 33.2247,
    "lastaddress_lng": -117.3083,
    "m_camp_lat": 34.15,
    "m_camp_lng": -114.2833
  },
  {
    "lastaddress": "Selma",
    "m_originalstate": "CA",
    "m_camp": "Gilariver",
    "pop": 539,
    "lastaddress_lat": 36.5715,
    "lastaddress_lng": -119.6143,
    "m_camp_lat": 32.1667,
    "m_camp_lng": -111.8667
  },
  {
    "lastaddress": "Westmorland",
    "m_originalstate": "CA",
    "m_camp": "Poston",
    "pop": 528,
    "lastaddress_lat": 33.0389,
    "lastaddress_lng": -115.6223,
    "m_camp_lat": 34.15,
    "m_camp_lng": -114.2833
  },
  {
    "lastaddress": "Santa Ana",
    "m_originalstate": "CA",
    "m_camp": "Poston",
    "pop": 520,
    "lastaddress_lat": 33.7366,
    "lastaddress_lng": -117.8819,
    "m_camp_lat": 34.15,
    "m_camp_lng": -114.2833
  },
  {
    "lastaddress": "Manteca",
    "m_originalstate": "CA",
    "m_camp": "Rohwer",
    "pop": 519,
    "lastaddress_lat": 37.7927,
    "lastaddress_lng": -121.2264,
    "m_camp_lat": 33.75,
    "m_camp_lng": -91.2667
  },
  {
    "lastaddress": "San Mateo",
    "m_originalstate": "CA",
    "m_camp": "Topaz",
    "pop": 511,
    "lastaddress_lat": 37.5521,
    "lastaddress_lng": -122.3122,
    "m_camp_lat": 39.3833,
    "m_camp_lng": -112.7167
  },
  {
    "lastaddress": "Tustin",
    "m_originalstate": "CA",
    "m_camp": "Poston",
    "pop": 501,
    "lastaddress_lat": 33.7309,
    "lastaddress_lng": -117.8106,
    "m_camp_lat": 34.15,
    "m_camp_lng": -114.2833
  },
  {
    "lastaddress": "Sacramento",
    "m_originalstate": "CA",
    "m_camp": "Poston",
    "pop": 493,
    "lastaddress_lat": 38.5667,
    "lastaddress_lng": -121.4683,
    "m_camp_lat": 34.15,
    "m_camp_lng": -114.2833
  },
  {
    "lastaddress": "Oahu",
    "m_originalstate": "HI",
    "m_camp": "Jerome",
    "pop": 442,
    "lastaddress_lat": 0,
    "lastaddress_lng": 0,
    "m_camp_lat": 33.3833,
    "m_camp_lng": -91.4667
  },
  {
    "lastaddress": "Santa Maria",
    "m_originalstate": "CA",
    "m_camp": "Gilariver",
    "pop": 437,
    "lastaddress_lat": 34.9334,
    "lastaddress_lng": -120.4432,
    "m_camp_lat": 32.1667,
    "m_camp_lng": -111.8667
  },
  {
    "lastaddress": "Santa Paula",
    "m_originalstate": "CA",
    "m_camp": "Gilariver",
    "pop": 436,
    "lastaddress_lat": 34.3521,
    "lastaddress_lng": -119.0698,
    "m_camp_lat": 32.1667,
    "m_camp_lng": -111.8667
  },
  {
    "lastaddress": "Marysville",
    "m_originalstate": "CA",
    "m_camp": "Tulelake",
    "pop": 435,
    "lastaddress_lat": 39.1518,
    "lastaddress_lng": -121.5835,
    "m_camp_lat": 41.8833,
    "m_camp_lng": -121.3667
  },
  {
    "lastaddress": "Signal Hill",
    "m_originalstate": "CA",
    "m_camp": "Rohwer",
    "pop": 416,
    "lastaddress_lat": 33.8029,
    "lastaddress_lng": -118.1681,
    "m_camp_lat": 33.75,
    "m_camp_lng": -91.2667
  },
  {
    "lastaddress": "Los Banos",
    "m_originalstate": "CA",
    "m_camp": "Amache",
    "pop": 408,
    "lastaddress_lat": 37.063,
    "lastaddress_lng": -120.8406,
    "m_camp_lat": 38.05,
    "m_camp_lng": -102.3
  },
  {
    "lastaddress": "Signal Hill",
    "m_originalstate": "CA",
    "m_camp": "Heartmountain",
    "pop": 406,
    "lastaddress_lat": 33.8029,
    "lastaddress_lng": -118.1681,
    "m_camp_lat": 44.5167,
    "m_camp_lng": -109.05
  },
  {
    "lastaddress": "Sacramento",
    "m_originalstate": "CA",
    "m_camp": "Jerome",
    "pop": 401,
    "lastaddress_lat": 38.5667,
    "lastaddress_lng": -121.4683,
    "m_camp_lat": 33.3833,
    "m_camp_lng": -91.4667
  },
  {
    "lastaddress": "Wilkeson",
    "m_originalstate": "WA",
    "m_camp": "Minidoka",
    "pop": 392,
    "lastaddress_lat": 47.1034,
    "lastaddress_lng": -122.0495,
    "m_camp_lat": 42.6667,
    "m_camp_lng": -114.2333
  },
  {
    "lastaddress": "Torrance",
    "m_originalstate": "CA",
    "m_camp": "Heartmountain",
    "pop": 391,
    "lastaddress_lat": 33.8346,
    "lastaddress_lng": -118.3417,
    "m_camp_lat": 44.5167,
    "m_camp_lng": -109.05
  },
  {
    "lastaddress": "Isleton",
    "m_originalstate": "CA",
    "m_camp": "Amache",
    "pop": 386,
    "lastaddress_lat": 38.1617,
    "lastaddress_lng": -121.6051,
    "m_camp_lat": 38.05,
    "m_camp_lng": -102.3
  },
  {
    "lastaddress": "Newport Beach",
    "m_originalstate": "CA",
    "m_camp": "Poston",
    "pop": 376,
    "lastaddress_lat": 33.6151,
    "lastaddress_lng": -117.8669,
    "m_camp_lat": 34.15,
    "m_camp_lng": -114.2833
  },
  {
    "lastaddress": "Winters",
    "m_originalstate": "CA",
    "m_camp": "Amache",
    "pop": 375,
    "lastaddress_lat": 38.532,
    "lastaddress_lng": -121.9781,
    "m_camp_lat": 38.05,
    "m_camp_lng": -102.3
  },
  {
    "lastaddress": "San Joaquin",
    "m_originalstate": "CA",
    "m_camp": "Jerome",
    "pop": 374,
    "lastaddress_lat": 36.6057,
    "lastaddress_lng": -120.1897,
    "m_camp_lat": 33.3833,
    "m_camp_lng": -91.4667
  },
  {
    "lastaddress": "Isleton",
    "m_originalstate": "CA",
    "m_camp": "Gilariver",
    "pop": 370,
    "lastaddress_lat": 38.1617,
    "lastaddress_lng": -121.6051,
    "m_camp_lat": 32.1667,
    "m_camp_lng": -111.8667
  },
  {
    "lastaddress": "Tacoma",
    "m_originalstate": "WA",
    "m_camp": "Minidoka",
    "pop": 359,
    "lastaddress_lat": 47.2431,
    "lastaddress_lng": -122.4531,
    "m_camp_lat": 42.6667,
    "m_camp_lng": -114.2333
  },
  {
    "lastaddress": "El Cajon",
    "m_originalstate": "CA",
    "m_camp": "Poston",
    "pop": 357,
    "lastaddress_lat": 32.8017,
    "lastaddress_lng": -116.9605,
    "m_camp_lat": 34.15,
    "m_camp_lng": -114.2833
  },
  {
    "lastaddress": "Visalia",
    "m_originalstate": "CA",
    "m_camp": "Jerome",
    "pop": 349,
    "lastaddress_lat": 36.3276,
    "lastaddress_lng": -119.3269,
    "m_camp_lat": 33.3833,
    "m_camp_lng": -91.4667
  },
  {
    "lastaddress": "Taft",
    "m_originalstate": "CA",
    "m_camp": "Poston",
    "pop": 344,
    "lastaddress_lat": 35.1267,
    "lastaddress_lng": -119.4242,
    "m_camp_lat": 34.15,
    "m_camp_lng": -114.2833
  },
  {
    "lastaddress": "Sunnyvale",
    "m_originalstate": "CA",
    "m_camp": "Poston",
    "pop": 340,
    "lastaddress_lat": 37.3836,
    "lastaddress_lng": -122.0256,
    "m_camp_lat": 34.15,
    "m_camp_lng": -114.2833
  },
  {
    "lastaddress": "Sonoma",
    "m_originalstate": "CA",
    "m_camp": "Amache",
    "pop": 335,
    "lastaddress_lat": 38.2902,
    "lastaddress_lng": -122.4598,
    "m_camp_lat": 38.05,
    "m_camp_lng": -102.3
  },
  {
    "lastaddress": "Turlock",
    "m_originalstate": "CA",
    "m_camp": "Amache",
    "pop": 334,
    "lastaddress_lat": 37.5053,
    "lastaddress_lng": -120.8588,
    "m_camp_lat": 38.05,
    "m_camp_lng": -102.3
  },
  {
    "lastaddress": "Taft",
    "m_originalstate": "CA",
    "m_camp": "Jerome",
    "pop": 328,
    "lastaddress_lat": 35.1267,
    "lastaddress_lng": -119.4242,
    "m_camp_lat": 33.3833,
    "m_camp_lng": -91.4667
  },
  {
    "lastaddress": "Winters",
    "m_originalstate": "CA",
    "m_camp": "Tulelake",
    "pop": 324,
    "lastaddress_lat": 38.532,
    "lastaddress_lng": -121.9781,
    "m_camp_lat": 41.8833,
    "m_camp_lng": -121.3667
  },
  {
    "lastaddress": "San Joaquin",
    "m_originalstate": "CA",
    "m_camp": "Poston",
    "pop": 322,
    "lastaddress_lat": 36.6057,
    "lastaddress_lng": -120.1897,
    "m_camp_lat": 34.15,
    "m_camp_lng": -114.2833
  },
  {
    "lastaddress": "Santa Barbara",
    "m_originalstate": "CA",
    "m_camp": "Gilariver",
    "pop": 305,
    "lastaddress_lat": 34.4285,
    "lastaddress_lng": -119.7202,
    "m_camp_lat": 32.1667,
    "m_camp_lng": -111.8667
  },
  {
    "lastaddress": "Bakersfield",
    "m_originalstate": "CA",
    "m_camp": "Poston",
    "pop": 296,
    "lastaddress_lat": 35.3529,
    "lastaddress_lng": -119.0359,
    "m_camp_lat": 34.15,
    "m_camp_lng": -114.2833
  },
  {
    "lastaddress": "San Jacinto",
    "m_originalstate": "CA",
    "m_camp": "Poston",
    "pop": 274,
    "lastaddress_lat": 33.797,
    "lastaddress_lng": -116.9916,
    "m_camp_lat": 34.15,
    "m_camp_lng": -114.2833
  },
  {
    "lastaddress": "Yuba City",
    "m_originalstate": "CA",
    "m_camp": "Amache",
    "pop": 267,
    "lastaddress_lat": 39.1357,
    "lastaddress_lng": -121.6381,
    "m_camp_lat": 38.05,
    "m_camp_lng": -102.3
  },
  {
    "lastaddress": "Los Angeles",
    "m_originalstate": "CA",
    "m_camp": "Tulelake",
    "pop": 260,
    "lastaddress_lat": 34.1139,
    "lastaddress_lng": -118.4068,
    "m_camp_lat": 41.8833,
    "m_camp_lng": -121.3667
  },
  {
    "lastaddress": "San Juan",
    "m_originalstate": "CA",
    "m_camp": "Poston",
    "pop": 259,
    "lastaddress_lat": 0,
    "lastaddress_lng": 0,
    "m_camp_lat": 34.15,
    "m_camp_lng": -114.2833
  },
  {
    "lastaddress": "Isleton",
    "m_originalstate": "CA",
    "m_camp": "Manzanar",
    "pop": 254,
    "lastaddress_lat": 38.1617,
    "lastaddress_lng": -121.6051,
    "m_camp_lat": 36.7333,
    "m_camp_lng": -118.0667
  },
  {
    "lastaddress": "Woodland",
    "m_originalstate": "CA",
    "m_camp": "Amache",
    "pop": 252,
    "lastaddress_lat": 38.6712,
    "lastaddress_lng": -121.75,
    "m_camp_lat": 38.05,
    "m_camp_lng": -102.3
  },
  {
    "lastaddress": "West Covina",
    "m_originalstate": "CA",
    "m_camp": "Heartmountain",
    "pop": 250,
    "lastaddress_lat": 34.0555,
    "lastaddress_lng": -117.9112,
    "m_camp_lat": 44.5167,
    "m_camp_lng": -109.05
  },
  {
    "lastaddress": "Whittier",
    "m_originalstate": "CA",
    "m_camp": "Heartmountain",
    "pop": 245,
    "lastaddress_lat": 33.9678,
    "lastaddress_lng": -118.0188,
    "m_camp_lat": 44.5167,
    "m_camp_lng": -109.05
  },
  {
    "lastaddress": "Auburn",
    "m_originalstate": "CA",
    "m_camp": "Tulelake",
    "pop": 244,
    "lastaddress_lat": 38.895,
    "lastaddress_lng": -121.0778,
    "m_camp_lat": 41.8833,
    "m_camp_lng": -121.3667
  },
  {
    "lastaddress": "Puyallup",
    "m_originalstate": "WA",
    "m_camp": "Minidoka",
    "pop": 244,
    "lastaddress_lat": 47.1794,
    "lastaddress_lng": -122.2902,
    "m_camp_lat": 42.6667,
    "m_camp_lng": -114.2333
  },
  {
    "lastaddress": "Oakland",
    "m_originalstate": "CA",
    "m_camp": "Gilariver",
    "pop": 236,
    "lastaddress_lat": 37.7903,
    "lastaddress_lng": -122.2165,
    "m_camp_lat": 32.1667,
    "m_camp_lng": -111.8667
  },
  {
    "lastaddress": "Coronada",
    "m_originalstate": "CA",
    "m_camp": "Poston",
    "pop": 229,
    "lastaddress_lat": 0,
    "lastaddress_lng": 0,
    "m_camp_lat": 34.15,
    "m_camp_lng": -114.2833
  },
  {
    "lastaddress": "Oakland",
    "m_originalstate": "CA",
    "m_camp": "Tulelake",
    "pop": 227,
    "lastaddress_lat": 37.7903,
    "lastaddress_lng": -122.2165,
    "m_camp_lat": 41.8833,
    "m_camp_lng": -121.3667
  },
  {
    "lastaddress": "San Francisco",
    "m_originalstate": "CA",
    "m_camp": "Tulelake",
    "pop": 225,
    "lastaddress_lat": 37.7562,
    "lastaddress_lng": -122.443,
    "m_camp_lat": 41.8833,
    "m_camp_lng": -121.3667
  },
  {
    "lastaddress": "Port Orchard",
    "m_originalstate": "WA",
    "m_camp": "Manzanar",
    "pop": 225,
    "lastaddress_lat": 47.5163,
    "lastaddress_lng": -122.661,
    "m_camp_lat": 36.7333,
    "m_camp_lng": -118.0667
  },
  {
    "lastaddress": "Fresno",
    "m_originalstate": "CA",
    "m_camp": "Gilariver",
    "pop": 224,
    "lastaddress_lat": 36.7831,
    "lastaddress_lng": -119.7941,
    "m_camp_lat": 32.1667,
    "m_camp_lng": -111.8667
  },
  {
    "lastaddress": "Fullerton",
    "m_originalstate": "CA",
    "m_camp": "Poston",
    "pop": 211,
    "lastaddress_lat": 33.8841,
    "lastaddress_lng": -117.9279,
    "m_camp_lat": 34.15,
    "m_camp_lng": -114.2833
  },
  {
    "lastaddress": "Hawaii",
    "m_originalstate": "HI",
    "m_camp": "Jerome",
    "pop": 210,
    "lastaddress_lat": 0,
    "lastaddress_lng": 0,
    "m_camp_lat": 33.3833,
    "m_camp_lng": -91.4667
  },
  {
    "lastaddress": "Piedmont",
    "m_originalstate": "CA",
    "m_camp": "Topaz",
    "pop": 207,
    "lastaddress_lat": 37.8226,
    "lastaddress_lng": -122.23,
    "m_camp_lat": 39.3833,
    "m_camp_lng": -112.7167
  },
  {
    "lastaddress": "Riverside",
    "m_originalstate": "CA",
    "m_camp": "Poston",
    "pop": 205,
    "lastaddress_lat": 33.9381,
    "lastaddress_lng": -117.3948,
    "m_camp_lat": 34.15,
    "m_camp_lng": -114.2833
  },
  {
    "lastaddress": "Morgan Hill",
    "m_originalstate": "CA",
    "m_camp": "Heartmountain",
    "pop": 205,
    "lastaddress_lat": 37.1326,
    "lastaddress_lng": -121.6417,
    "m_camp_lat": 44.5167,
    "m_camp_lng": -109.05
  },
  {
    "lastaddress": "Santa Clara",
    "m_originalstate": "CA",
    "m_camp": "Heartmountain",
    "pop": 193,
    "lastaddress_lat": 37.3645,
    "lastaddress_lng": -121.968,
    "m_camp_lat": 44.5167,
    "m_camp_lng": -109.05
  },
  {
    "lastaddress": "Signal Hill",
    "m_originalstate": "CA",
    "m_camp": "Gilariver",
    "pop": 192,
    "lastaddress_lat": 33.8029,
    "lastaddress_lng": -118.1681,
    "m_camp_lat": 32.1667,
    "m_camp_lng": -111.8667
  },
  {
    "lastaddress": "Signal Hill",
    "m_originalstate": "CA",
    "m_camp": "Jerome",
    "pop": 189,
    "lastaddress_lat": 33.8029,
    "lastaddress_lng": -118.1681,
    "m_camp_lat": 33.3833,
    "m_camp_lng": -91.4667
  },
  {
    "lastaddress": "Petaluma",
    "m_originalstate": "CA",
    "m_camp": "Amache",
    "pop": 186,
    "lastaddress_lat": 38.2423,
    "lastaddress_lng": -122.6267,
    "m_camp_lat": 38.05,
    "m_camp_lng": -102.3
  },
  {
    "lastaddress": "Modesto",
    "m_originalstate": "CA",
    "m_camp": "Amache",
    "pop": 183,
    "lastaddress_lat": 37.6374,
    "lastaddress_lng": -121.0028,
    "m_camp_lat": 38.05,
    "m_camp_lng": -102.3
  },
  {
    "lastaddress": "Tehachapi",
    "m_originalstate": "CA",
    "m_camp": "Poston",
    "pop": 181,
    "lastaddress_lat": 35.1274,
    "lastaddress_lng": -118.4749,
    "m_camp_lat": 34.15,
    "m_camp_lng": -114.2833
  },
  {
    "lastaddress": "San Francisco",
    "m_originalstate": "CA",
    "m_camp": "Gilariver",
    "pop": 173,
    "lastaddress_lat": 37.7562,
    "lastaddress_lng": -122.443,
    "m_camp_lat": 32.1667,
    "m_camp_lng": -111.8667
  },
  {
    "lastaddress": "San Leandro",
    "m_originalstate": "CA",
    "m_camp": "Topaz",
    "pop": 173,
    "lastaddress_lat": 37.7071,
    "lastaddress_lng": -122.1601,
    "m_camp_lat": 39.3833,
    "m_camp_lng": -112.7167
  },
  {
    "lastaddress": "South Gate",
    "m_originalstate": "CA",
    "m_camp": "Rohwer",
    "pop": 173,
    "lastaddress_lat": 33.9448,
    "lastaddress_lng": -118.1926,
    "m_camp_lat": 33.75,
    "m_camp_lng": -91.2667
  },
  {
    "lastaddress": "Isleton",
    "m_originalstate": "CA",
    "m_camp": "Poston",
    "pop": 172,
    "lastaddress_lat": 38.1617,
    "lastaddress_lng": -121.6051,
    "m_camp_lat": 34.15,
    "m_camp_lng": -114.2833
  },
  {
    "lastaddress": "Arroyo Grande",
    "m_originalstate": "CA",
    "m_camp": "Gilariver",
    "pop": 169,
    "lastaddress_lat": 35.1241,
    "lastaddress_lng": -120.5845,
    "m_camp_lat": 32.1667,
    "m_camp_lng": -111.8667
  },
  {
    "lastaddress": "WIlliams",
    "m_originalstate": "CA",
    "m_camp": "Amache",
    "pop": 169,
    "lastaddress_lat": 0,
    "lastaddress_lng": 0,
    "m_camp_lat": 38.05,
    "m_camp_lng": -102.3
  },
  {
    "lastaddress": "Oahu",
    "m_originalstate": "HI",
    "m_camp": "Topaz",
    "pop": 167,
    "lastaddress_lat": 0,
    "lastaddress_lng": 0,
    "m_camp_lat": 39.3833,
    "m_camp_lng": -112.7167
  },
  {
    "lastaddress": "Hollister",
    "m_originalstate": "CA",
    "m_camp": "Poston",
    "pop": 166,
    "lastaddress_lat": 36.8563,
    "lastaddress_lng": -121.3981,
    "m_camp_lat": 34.15,
    "m_camp_lng": -114.2833
  },
  {
    "lastaddress": "Lawndale",
    "m_originalstate": "CA",
    "m_camp": "Topaz",
    "pop": 163,
    "lastaddress_lat": 33.8884,
    "lastaddress_lng": -118.3531,
    "m_camp_lat": 39.3833,
    "m_camp_lng": -112.7167
  },
  {
    "lastaddress": "Whittier",
    "m_originalstate": "CA",
    "m_camp": "Jerome",
    "pop": 158,
    "lastaddress_lat": 33.9678,
    "lastaddress_lng": -118.0188,
    "m_camp_lat": 33.3833,
    "m_camp_lng": -91.4667
  },
  {
    "lastaddress": "Madera",
    "m_originalstate": "CA",
    "m_camp": "Jerome",
    "pop": 156,
    "lastaddress_lat": 36.9631,
    "lastaddress_lng": -120.0782,
    "m_camp_lat": 33.3833,
    "m_camp_lng": -91.4667
  },
  {
    "lastaddress": "Manteca",
    "m_originalstate": "CA",
    "m_camp": "Gilariver",
    "pop": 150,
    "lastaddress_lat": 37.7927,
    "lastaddress_lng": -121.2264,
    "m_camp_lat": 32.1667,
    "m_camp_lng": -111.8667
  },
  {
    "lastaddress": "Palo Alto",
    "m_originalstate": "CA",
    "m_camp": "Heartmountain",
    "pop": 149,
    "lastaddress_lat": 37.3913,
    "lastaddress_lng": -122.1468,
    "m_camp_lat": 44.5167,
    "m_camp_lng": -109.05
  },
  {
    "lastaddress": "City_Unregistered",
    "m_originalstate": "Not Found",
    "m_camp": "Poston",
    "pop": 144,
    "lastaddress_lat": 0,
    "lastaddress_lng": 0,
    "m_camp_lat": 34.15,
    "m_camp_lng": -114.2833
  },
  {
    "lastaddress": "Livermore",
    "m_originalstate": "CA",
    "m_camp": "Topaz",
    "pop": 142,
    "lastaddress_lat": 37.6862,
    "lastaddress_lng": -121.7608,
    "m_camp_lat": 39.3833,
    "m_camp_lng": -112.7167
  },
  {
    "lastaddress": "Gridley",
    "m_originalstate": "CA",
    "m_camp": "Tulelake",
    "pop": 140,
    "lastaddress_lat": 39.3622,
    "lastaddress_lng": -121.6971,
    "m_camp_lat": 41.8833,
    "m_camp_lng": -121.3667
  },
  {
    "lastaddress": "Lompoc",
    "m_originalstate": "CA",
    "m_camp": "Gilariver",
    "pop": 140,
    "lastaddress_lat": 34.6618,
    "lastaddress_lng": -120.4714,
    "m_camp_lat": 32.1667,
    "m_camp_lng": -111.8667
  },
  {
    "lastaddress": "Toppenish",
    "m_originalstate": "WA",
    "m_camp": "Heartmountain",
    "pop": 136,
    "lastaddress_lat": 46.3806,
    "lastaddress_lng": -120.3123,
    "m_camp_lat": 44.5167,
    "m_camp_lng": -109.05
  },
  {
    "lastaddress": "Maui",
    "m_originalstate": "HI",
    "m_camp": "Minidoka",
    "pop": 131,
    "lastaddress_lat": 0,
    "lastaddress_lng": 0,
    "m_camp_lat": 42.6667,
    "m_camp_lng": -114.2333
  },
  {
    "lastaddress": "Manteca",
    "m_originalstate": "CA",
    "m_camp": "Manzanar",
    "pop": 131,
    "lastaddress_lat": 37.7927,
    "lastaddress_lng": -121.2264,
    "m_camp_lat": 36.7333,
    "m_camp_lng": -118.0667
  },
  {
    "lastaddress": "Soledad",
    "m_originalstate": "CA",
    "m_camp": "Poston",
    "pop": 130,
    "lastaddress_lat": 36.4432,
    "lastaddress_lng": -121.3426,
    "m_camp_lat": 34.15,
    "m_camp_lng": -114.2833
  },
  {
    "lastaddress": "City_Unregistered",
    "m_originalstate": "Not Found",
    "m_camp": "Gilariver",
    "pop": 130,
    "lastaddress_lat": 0,
    "lastaddress_lng": 0,
    "m_camp_lat": 32.1667,
    "m_camp_lng": -111.8667
  },
  {
    "lastaddress": "Riverbank",
    "m_originalstate": "CA",
    "m_camp": "Amache",
    "pop": 130,
    "lastaddress_lat": 37.7268,
    "lastaddress_lng": -120.9402,
    "m_camp_lat": 38.05,
    "m_camp_lng": -102.3
  },
  {
    "lastaddress": "Stockton",
    "m_originalstate": "CA",
    "m_camp": "Tulelake",
    "pop": 129,
    "lastaddress_lat": 37.9765,
    "lastaddress_lng": -121.3109,
    "m_camp_lat": 41.8833,
    "m_camp_lng": -121.3667
  },
  {
    "lastaddress": "Santa Rosa",
    "m_originalstate": "CA",
    "m_camp": "Amache",
    "pop": 129,
    "lastaddress_lat": 38.4458,
    "lastaddress_lng": -122.7067,
    "m_camp_lat": 38.05,
    "m_camp_lng": -102.3
  },
  {
    "lastaddress": "San Jose",
    "m_originalstate": "CA",
    "m_camp": "Gilariver",
    "pop": 128,
    "lastaddress_lat": 37.3019,
    "lastaddress_lng": -121.8486,
    "m_camp_lat": 32.1667,
    "m_camp_lng": -111.8667
  },
  {
    "lastaddress": "Torrance",
    "m_originalstate": "CA",
    "m_camp": "Poston",
    "pop": 128,
    "lastaddress_lat": 33.8346,
    "lastaddress_lng": -118.3417,
    "m_camp_lat": 34.15,
    "m_camp_lng": -114.2833
  },
  {
    "lastaddress": "Yakima",
    "m_originalstate": "WA",
    "m_camp": "Heartmountain",
    "pop": 127,
    "lastaddress_lat": 46.5923,
    "lastaddress_lng": -120.5496,
    "m_camp_lat": 44.5167,
    "m_camp_lng": -109.05
  },
  {
    "lastaddress": "Calexico",
    "m_originalstate": "CA",
    "m_camp": "Poston",
    "pop": 125,
    "lastaddress_lat": 32.6849,
    "lastaddress_lng": -115.4944,
    "m_camp_lat": 34.15,
    "m_camp_lng": -114.2833
  },
  {
    "lastaddress": "Sacramento",
    "m_originalstate": "CA",
    "m_camp": "Manzanar",
    "pop": 122,
    "lastaddress_lat": 38.5667,
    "lastaddress_lng": -121.4683,
    "m_camp_lat": 36.7333,
    "m_camp_lng": -118.0667
  },
  {
    "lastaddress": "South Gate",
    "m_originalstate": "CA",
    "m_camp": "Heartmountain",
    "pop": 121,
    "lastaddress_lat": 33.9448,
    "lastaddress_lng": -118.1926,
    "m_camp_lat": 44.5167,
    "m_camp_lng": -109.05
  },
  {
    "lastaddress": "Winters",
    "m_originalstate": "CA",
    "m_camp": "Gilariver",
    "pop": 119,
    "lastaddress_lat": 38.532,
    "lastaddress_lng": -121.9781,
    "m_camp_lat": 32.1667,
    "m_camp_lng": -111.8667
  },
  {
    "lastaddress": "San Bernardino",
    "m_originalstate": "CA",
    "m_camp": "Poston",
    "pop": 119,
    "lastaddress_lat": 34.1417,
    "lastaddress_lng": -117.2946,
    "m_camp_lat": 34.15,
    "m_camp_lng": -114.2833
  },
  {
    "lastaddress": "Salinas",
    "m_originalstate": "CA",
    "m_camp": "Tulelake",
    "pop": 118,
    "lastaddress_lat": 36.6884,
    "lastaddress_lng": -121.6317,
    "m_camp_lat": 41.8833,
    "m_camp_lng": -121.3667
  },
  {
    "lastaddress": "Whittier",
    "m_originalstate": "CA",
    "m_camp": "Manzanar",
    "pop": 117,
    "lastaddress_lat": 33.9678,
    "lastaddress_lng": -118.0188,
    "m_camp_lat": 36.7333,
    "m_camp_lng": -118.0667
  },
  {
    "lastaddress": "Phoenix",
    "m_originalstate": "AZ",
    "m_camp": "Poston",
    "pop": 116,
    "lastaddress_lat": 33.5722,
    "lastaddress_lng": -112.0891,
    "m_camp_lat": 34.15,
    "m_camp_lng": -114.2833
  },
  {
    "lastaddress": "West Covina",
    "m_originalstate": "CA",
    "m_camp": "Poston",
    "pop": 116,
    "lastaddress_lat": 34.0555,
    "lastaddress_lng": -117.9112,
    "m_camp_lat": 34.15,
    "m_camp_lng": -114.2833
  },
  {
    "lastaddress": "Lodi",
    "m_originalstate": "CA",
    "m_camp": "Tulelake",
    "pop": 114,
    "lastaddress_lat": 38.1218,
    "lastaddress_lng": -121.2932,
    "m_camp_lat": 41.8833,
    "m_camp_lng": -121.3667
  },
  {
    "lastaddress": "Manteca",
    "m_originalstate": "CA",
    "m_camp": "Tulelake",
    "pop": 113,
    "lastaddress_lat": 37.7927,
    "lastaddress_lng": -121.2264,
    "m_camp_lat": 41.8833,
    "m_camp_lng": -121.3667
  },
  {
    "lastaddress": "Sunnyvale",
    "m_originalstate": "CA",
    "m_camp": "Tulelake",
    "pop": 112,
    "lastaddress_lat": 37.3836,
    "lastaddress_lng": -122.0256,
    "m_camp_lat": 41.8833,
    "m_camp_lng": -121.3667
  },
  {
    "lastaddress": "Lemoore",
    "m_originalstate": "CA",
    "m_camp": "Jerome",
    "pop": 111,
    "lastaddress_lat": 36.2949,
    "lastaddress_lng": -119.7983,
    "m_camp_lat": 33.3833,
    "m_camp_lng": -91.4667
  },
  {
    "lastaddress": "Oakland",
    "m_originalstate": "CA",
    "m_camp": "Heartmountain",
    "pop": 101,
    "lastaddress_lat": 37.7903,
    "lastaddress_lng": -122.2165,
    "m_camp_lat": 44.5167,
    "m_camp_lng": -109.05
  },
  {
    "lastaddress": "Sacramento",
    "m_originalstate": "CA",
    "m_camp": "Amache",
    "pop": 101,
    "lastaddress_lat": 38.5667,
    "lastaddress_lng": -121.4683,
    "m_camp_lat": 38.05,
    "m_camp_lng": -102.3
  },
  {
    "lastaddress": "Fresno",
    "m_originalstate": "CA",
    "m_camp": "Poston",
    "pop": 99,
    "lastaddress_lat": 36.7831,
    "lastaddress_lng": -119.7941,
    "m_camp_lat": 34.15,
    "m_camp_lng": -114.2833
  },
  {
    "lastaddress": "Longview",
    "m_originalstate": "WA",
    "m_camp": "Tulelake",
    "pop": 95,
    "lastaddress_lat": 46.1461,
    "lastaddress_lng": -122.9629,
    "m_camp_lat": 41.8833,
    "m_camp_lng": -121.3667
  },
  {
    "lastaddress": "City_Unregistered",
    "m_originalstate": "Not Found",
    "m_camp": "Manzanar",
    "pop": 93,
    "lastaddress_lat": 0,
    "lastaddress_lng": 0,
    "m_camp_lat": 36.7333,
    "m_camp_lng": -118.0667
  },
  {
    "lastaddress": "Torrance",
    "m_originalstate": "CA",
    "m_camp": "Amache",
    "pop": 91,
    "lastaddress_lat": 33.8346,
    "lastaddress_lng": -118.3417,
    "m_camp_lat": 38.05,
    "m_camp_lng": -102.3
  },
  {
    "lastaddress": "City_Unregistered",
    "m_originalstate": "Not Found",
    "m_camp": "Heartmountain",
    "pop": 91,
    "lastaddress_lat": 0,
    "lastaddress_lng": 0,
    "m_camp_lat": 44.5167,
    "m_camp_lng": -109.05
  },
  {
    "lastaddress": "Wilkeson",
    "m_originalstate": "WA",
    "m_camp": "Tulelake",
    "pop": 88,
    "lastaddress_lat": 47.1034,
    "lastaddress_lng": -122.0495,
    "m_camp_lat": 41.8833,
    "m_camp_lng": -121.3667
  },
  {
    "lastaddress": "Palo Alto",
    "m_originalstate": "CA",
    "m_camp": "Topaz",
    "pop": 87,
    "lastaddress_lat": 37.3913,
    "lastaddress_lng": -122.1468,
    "m_camp_lat": 39.3833,
    "m_camp_lng": -112.7167
  },
  {
    "lastaddress": "Woodlake",
    "m_originalstate": "CA",
    "m_camp": "Jerome",
    "pop": 85,
    "lastaddress_lat": 36.4124,
    "lastaddress_lng": -119.0999,
    "m_camp_lat": 33.3833,
    "m_camp_lng": -91.4667
  },
  {
    "lastaddress": "Tulare",
    "m_originalstate": "CA",
    "m_camp": "Jerome",
    "pop": 85,
    "lastaddress_lat": 36.1996,
    "lastaddress_lng": -119.34,
    "m_camp_lat": 33.3833,
    "m_camp_lng": -91.4667
  },
  {
    "lastaddress": "Whittier",
    "m_originalstate": "CA",
    "m_camp": "Poston",
    "pop": 85,
    "lastaddress_lat": 33.9678,
    "lastaddress_lng": -118.0188,
    "m_camp_lat": 34.15,
    "m_camp_lng": -114.2833
  },
  {
    "lastaddress": "Kauai",
    "m_originalstate": "HI",
    "m_camp": "Jerome",
    "pop": 85,
    "lastaddress_lat": 0,
    "lastaddress_lng": 0,
    "m_camp_lat": 33.3833,
    "m_camp_lng": -91.4667
  },
  {
    "lastaddress": "Selma",
    "m_originalstate": "CA",
    "m_camp": "Jerome",
    "pop": 84,
    "lastaddress_lat": 36.5715,
    "lastaddress_lng": -119.6143,
    "m_camp_lat": 33.3833,
    "m_camp_lng": -91.4667
  },
  {
    "lastaddress": "West Covina",
    "m_originalstate": "CA",
    "m_camp": "Rohwer",
    "pop": 83,
    "lastaddress_lat": 34.0555,
    "lastaddress_lng": -117.9112,
    "m_camp_lat": 33.75,
    "m_camp_lng": -91.2667
  },
  {
    "lastaddress": "South Gate",
    "m_originalstate": "CA",
    "m_camp": "Poston",
    "pop": 82,
    "lastaddress_lat": 33.9448,
    "lastaddress_lng": -118.1926,
    "m_camp_lat": 34.15,
    "m_camp_lng": -114.2833
  },
  {
    "lastaddress": "Oakland",
    "m_originalstate": "CA",
    "m_camp": "Poston",
    "pop": 82,
    "lastaddress_lat": 37.7903,
    "lastaddress_lng": -122.2165,
    "m_camp_lat": 34.15,
    "m_camp_lng": -114.2833
  },
  {
    "lastaddress": "San Francisco",
    "m_originalstate": "CA",
    "m_camp": "Manzanar",
    "pop": 81,
    "lastaddress_lat": 37.7562,
    "lastaddress_lng": -122.443,
    "m_camp_lat": 36.7333,
    "m_camp_lng": -118.0667
  },
  {
    "lastaddress": "San Francisco",
    "m_originalstate": "CA",
    "m_camp": "Rohwer",
    "pop": 80,
    "lastaddress_lat": 37.7562,
    "lastaddress_lng": -122.443,
    "m_camp_lat": 33.75,
    "m_camp_lng": -91.2667
  },
  {
    "lastaddress": "San Carlos",
    "m_originalstate": "CA",
    "m_camp": "Topaz",
    "pop": 80,
    "lastaddress_lat": 37.4982,
    "lastaddress_lng": -122.268,
    "m_camp_lat": 39.3833,
    "m_camp_lng": -112.7167
  },
  {
    "lastaddress": "City_Unregistered",
    "m_originalstate": "Not Found",
    "m_camp": "Topaz",
    "pop": 79,
    "lastaddress_lat": 0,
    "lastaddress_lng": 0,
    "m_camp_lat": 39.3833,
    "m_camp_lng": -112.7167
  },
  {
    "lastaddress": "Spokane",
    "m_originalstate": "WA",
    "m_camp": "Heartmountain",
    "pop": 78,
    "lastaddress_lat": 47.6671,
    "lastaddress_lng": -117.433,
    "m_camp_lat": 44.5167,
    "m_camp_lng": -109.05
  },
  {
    "lastaddress": "San Buenaventura",
    "m_originalstate": "CA",
    "m_camp": "Gilariver",
    "pop": 78,
    "lastaddress_lat": 34.2741,
    "lastaddress_lng": -119.2314,
    "m_camp_lat": 32.1667,
    "m_camp_lng": -111.8667
  },
  {
    "lastaddress": "Santa Cruz",
    "m_originalstate": "CA",
    "m_camp": "Poston",
    "pop": 76,
    "lastaddress_lat": 36.9789,
    "lastaddress_lng": -122.0346,
    "m_camp_lat": 34.15,
    "m_camp_lng": -114.2833
  },
  {
    "lastaddress": "Olympia",
    "m_originalstate": "WA",
    "m_camp": "Tulelake",
    "pop": 75,
    "lastaddress_lat": 47.0417,
    "lastaddress_lng": -122.8959,
    "m_camp_lat": 41.8833,
    "m_camp_lng": -121.3667
  },
  {
    "lastaddress": "City_Unregistered",
    "m_originalstate": "Not Found",
    "m_camp": "Tulelake",
    "pop": 74,
    "lastaddress_lat": 0,
    "lastaddress_lng": 0,
    "m_camp_lat": 41.8833,
    "m_camp_lng": -121.3667
  },
  {
    "lastaddress": "San Francisco",
    "m_originalstate": "CA",
    "m_camp": "Amache",
    "pop": 74,
    "lastaddress_lat": 37.7562,
    "lastaddress_lng": -122.443,
    "m_camp_lat": 38.05,
    "m_camp_lng": -102.3
  },
  {
    "lastaddress": "San Luis Obisbo",
    "m_originalstate": "CA",
    "m_camp": "Jerome",
    "pop": 74,
    "lastaddress_lat": 0,
    "lastaddress_lng": 0,
    "m_camp_lat": 33.3833,
    "m_camp_lng": -91.4667
  },
  {
    "lastaddress": "Needles",
    "m_originalstate": "CA",
    "m_camp": "Poston",
    "pop": 73,
    "lastaddress_lat": 34.8164,
    "lastaddress_lng": -114.6189,
    "m_camp_lat": 34.15,
    "m_camp_lng": -114.2833
  },
  {
    "lastaddress": "San Luis Obisbo",
    "m_originalstate": "CA",
    "m_camp": "Poston",
    "pop": 72,
    "lastaddress_lat": 0,
    "lastaddress_lng": 0,
    "m_camp_lat": 34.15,
    "m_camp_lng": -114.2833
  },
  {
    "lastaddress": "Salinas",
    "m_originalstate": "CA",
    "m_camp": "Gilariver",
    "pop": 72,
    "lastaddress_lat": 36.6884,
    "lastaddress_lng": -121.6317,
    "m_camp_lat": 32.1667,
    "m_camp_lng": -111.8667
  },
  {
    "lastaddress": "City_Unregistered",
    "m_originalstate": "Not Found",
    "m_camp": "Minidoka",
    "pop": 72,
    "lastaddress_lat": 0,
    "lastaddress_lng": 0,
    "m_camp_lat": 42.6667,
    "m_camp_lng": -114.2333
  },
  {
    "lastaddress": "City_Unregistered",
    "m_originalstate": "Not Found",
    "m_camp": "Rohwer",
    "pop": 72,
    "lastaddress_lat": 0,
    "lastaddress_lng": 0,
    "m_camp_lat": 33.75,
    "m_camp_lng": -91.2667
  },
  {
    "lastaddress": "Tempe",
    "m_originalstate": "AZ",
    "m_camp": "Poston",
    "pop": 71,
    "lastaddress_lat": 33.3881,
    "lastaddress_lng": -111.9318,
    "m_camp_lat": 34.15,
    "m_camp_lng": -114.2833
  },
  {
    "lastaddress": "Maui",
    "m_originalstate": "HI",
    "m_camp": "Jerome",
    "pop": 70,
    "lastaddress_lat": 0,
    "lastaddress_lng": 0,
    "m_camp_lat": 33.3833,
    "m_camp_lng": -91.4667
  },
  {
    "lastaddress": "Pleasanton",
    "m_originalstate": "CA",
    "m_camp": "Gilariver",
    "pop": 68,
    "lastaddress_lat": 37.6663,
    "lastaddress_lng": -121.8805,
    "m_camp_lat": 32.1667,
    "m_camp_lng": -111.8667
  },
  {
    "lastaddress": "Oakland",
    "m_originalstate": "CA",
    "m_camp": "Amache",
    "pop": 68,
    "lastaddress_lat": 37.7903,
    "lastaddress_lng": -122.2165,
    "m_camp_lat": 38.05,
    "m_camp_lng": -102.3
  },
  {
    "lastaddress": "Upland",
    "m_originalstate": "CA",
    "m_camp": "Poston",
    "pop": 67,
    "lastaddress_lat": 34.1178,
    "lastaddress_lng": -117.6603,
    "m_camp_lat": 34.15,
    "m_camp_lng": -114.2833
  },
  {
    "lastaddress": "Arroyo Grande",
    "m_originalstate": "CA",
    "m_camp": "Poston",
    "pop": 66,
    "lastaddress_lat": 35.1241,
    "lastaddress_lng": -120.5845,
    "m_camp_lat": 34.15,
    "m_camp_lng": -114.2833
  },
  {
    "lastaddress": "San Jose",
    "m_originalstate": "CA",
    "m_camp": "Poston",
    "pop": 65,
    "lastaddress_lat": 37.3019,
    "lastaddress_lng": -121.8486,
    "m_camp_lat": 34.15,
    "m_camp_lng": -114.2833
  },
  {
    "lastaddress": "City_Unregistered",
    "m_originalstate": "Not Found",
    "m_camp": "Jerome",
    "pop": 63,
    "lastaddress_lat": 0,
    "lastaddress_lng": 0,
    "m_camp_lat": 33.3833,
    "m_camp_lng": -91.4667
  },
  {
    "lastaddress": "Redlands",
    "m_originalstate": "CA",
    "m_camp": "Poston",
    "pop": 63,
    "lastaddress_lat": 34.0511,
    "lastaddress_lng": -117.1712,
    "m_camp_lat": 34.15,
    "m_camp_lng": -114.2833
  },
  {
    "lastaddress": "San Francisco",
    "m_originalstate": "CA",
    "m_camp": "Poston",
    "pop": 63,
    "lastaddress_lat": 37.7562,
    "lastaddress_lng": -122.443,
    "m_camp_lat": 34.15,
    "m_camp_lng": -114.2833
  },
  {
    "lastaddress": "Yacolt",
    "m_originalstate": "WA",
    "m_camp": "Tulelake",
    "pop": 63,
    "lastaddress_lat": 45.8653,
    "lastaddress_lng": -122.4062,
    "m_camp_lat": 41.8833,
    "m_camp_lng": -121.3667
  },
  {
    "lastaddress": "Morgan Hill",
    "m_originalstate": "CA",
    "m_camp": "Poston",
    "pop": 62,
    "lastaddress_lat": 37.1326,
    "lastaddress_lng": -121.6417,
    "m_camp_lat": 34.15,
    "m_camp_lng": -114.2833
  },
  {
    "lastaddress": "National City",
    "m_originalstate": "CA",
    "m_camp": "Poston",
    "pop": 61,
    "lastaddress_lat": 32.6654,
    "lastaddress_lng": -117.0983,
    "m_camp_lat": 34.15,
    "m_camp_lng": -114.2833
  },
  {
    "lastaddress": "Watsonville",
    "m_originalstate": "CA",
    "m_camp": "Tulelake",
    "pop": 59,
    "lastaddress_lat": 36.9206,
    "lastaddress_lng": -121.7706,
    "m_camp_lat": 41.8833,
    "m_camp_lng": -121.3667
  },
  {
    "lastaddress": "San Francisco",
    "m_originalstate": "CA",
    "m_camp": "Jerome",
    "pop": 59,
    "lastaddress_lat": 37.7562,
    "lastaddress_lng": -122.443,
    "m_camp_lat": 33.3833,
    "m_camp_lng": -91.4667
  },
  {
    "lastaddress": "Oakland",
    "m_originalstate": "CA",
    "m_camp": "Jerome",
    "pop": 58,
    "lastaddress_lat": 37.7903,
    "lastaddress_lng": -122.2165,
    "m_camp_lat": 33.3833,
    "m_camp_lng": -91.4667
  },
  {
    "lastaddress": "Pittsburg",
    "m_originalstate": "CA",
    "m_camp": "Topaz",
    "pop": 57,
    "lastaddress_lat": 38.0182,
    "lastaddress_lng": -121.8964,
    "m_camp_lat": 39.3833,
    "m_camp_lng": -112.7167
  },
  {
    "lastaddress": "Richmond",
    "m_originalstate": "CA",
    "m_camp": "Topaz",
    "pop": 57,
    "lastaddress_lat": 37.9477,
    "lastaddress_lng": -122.339,
    "m_camp_lat": 39.3833,
    "m_camp_lng": -112.7167
  },
  {
    "lastaddress": "Lindsay",
    "m_originalstate": "CA",
    "m_camp": "Jerome",
    "pop": 56,
    "lastaddress_lat": 36.2082,
    "lastaddress_lng": -119.0897,
    "m_camp_lat": 33.3833,
    "m_camp_lng": -91.4667
  },
  {
    "lastaddress": "San Jose",
    "m_originalstate": "CA",
    "m_camp": "Tulelake",
    "pop": 56,
    "lastaddress_lat": 37.3019,
    "lastaddress_lng": -121.8486,
    "m_camp_lat": 41.8833,
    "m_camp_lng": -121.3667
  },
  {
    "lastaddress": "South Gate",
    "m_originalstate": "CA",
    "m_camp": "Tulelake",
    "pop": 52,
    "lastaddress_lat": 33.9448,
    "lastaddress_lng": -118.1926,
    "m_camp_lat": 41.8833,
    "m_camp_lng": -121.3667
  },
  {
    "lastaddress": "Vancouver",
    "m_originalstate": "WA",
    "m_camp": "Tulelake",
    "pop": 51,
    "lastaddress_lat": 45.6366,
    "lastaddress_lng": -122.5967,
    "m_camp_lat": 41.8833,
    "m_camp_lng": -121.3667
  },
  {
    "lastaddress": "South Bend",
    "m_originalstate": "WA",
    "m_camp": "Tulelake",
    "pop": 48,
    "lastaddress_lat": 46.6678,
    "lastaddress_lng": -123.8006,
    "m_camp_lat": 41.8833,
    "m_camp_lng": -121.3667
  },
  {
    "lastaddress": "Lawndale",
    "m_originalstate": "CA",
    "m_camp": "Rohwer",
    "pop": 47,
    "lastaddress_lat": 33.8884,
    "lastaddress_lng": -118.3531,
    "m_camp_lat": 33.75,
    "m_camp_lng": -91.2667
  },
  {
    "lastaddress": "White Salmon",
    "m_originalstate": "WA",
    "m_camp": "Tulelake",
    "pop": 47,
    "lastaddress_lat": 45.7283,
    "lastaddress_lng": -121.4856,
    "m_camp_lat": 41.8833,
    "m_camp_lng": -121.3667
  },
  {
    "lastaddress": "Sausalito",
    "m_originalstate": "CA",
    "m_camp": "Amache",
    "pop": 47,
    "lastaddress_lat": 37.858,
    "lastaddress_lng": -122.4932,
    "m_camp_lat": 38.05,
    "m_camp_lng": -102.3
  },
  {
    "lastaddress": "Rialto",
    "m_originalstate": "CA",
    "m_camp": "Poston",
    "pop": 47,
    "lastaddress_lat": 34.1174,
    "lastaddress_lng": -117.3894,
    "m_camp_lat": 34.15,
    "m_camp_lng": -114.2833
  },
  {
    "lastaddress": "Los Angeles",
    "m_originalstate": "CA",
    "m_camp": "Topaz",
    "pop": 47,
    "lastaddress_lat": 34.1139,
    "lastaddress_lng": -118.4068,
    "m_camp_lat": 39.3833,
    "m_camp_lng": -112.7167
  },
  {
    "lastaddress": "Watsonville",
    "m_originalstate": "CA",
    "m_camp": "Gilariver",
    "pop": 46,
    "lastaddress_lat": 36.9206,
    "lastaddress_lng": -121.7706,
    "m_camp_lat": 32.1667,
    "m_camp_lng": -111.8667
  },
  {
    "lastaddress": "Renton",
    "m_originalstate": "WA",
    "m_camp": "Minidoka",
    "pop": 46,
    "lastaddress_lat": 47.4784,
    "lastaddress_lng": -122.1919,
    "m_camp_lat": 42.6667,
    "m_camp_lng": -114.2333
  },
  {
    "lastaddress": "Port Orchard",
    "m_originalstate": "WA",
    "m_camp": "Tulelake",
    "pop": 45,
    "lastaddress_lat": 47.5163,
    "lastaddress_lng": -122.661,
    "m_camp_lat": 41.8833,
    "m_camp_lng": -121.3667
  },
  {
    "lastaddress": "Willows",
    "m_originalstate": "CA",
    "m_camp": "Amache",
    "pop": 44,
    "lastaddress_lat": 39.5149,
    "lastaddress_lng": -122.1995,
    "m_camp_lat": 38.05,
    "m_camp_lng": -102.3
  },
  {
    "lastaddress": "Pleasanton",
    "m_originalstate": "CA",
    "m_camp": "Tulelake",
    "pop": 44,
    "lastaddress_lat": 37.6663,
    "lastaddress_lng": -121.8805,
    "m_camp_lat": 41.8833,
    "m_camp_lng": -121.3667
  },
  {
    "lastaddress": "South Gate",
    "m_originalstate": "CA",
    "m_camp": "Amache",
    "pop": 43,
    "lastaddress_lat": 33.9448,
    "lastaddress_lng": -118.1926,
    "m_camp_lat": 38.05,
    "m_camp_lng": -102.3
  },
  {
    "lastaddress": "Whittier",
    "m_originalstate": "CA",
    "m_camp": "Amache",
    "pop": 43,
    "lastaddress_lat": 33.9678,
    "lastaddress_lng": -118.0188,
    "m_camp_lat": 38.05,
    "m_camp_lng": -102.3
  },
  {
    "lastaddress": "City_Unregistered",
    "m_originalstate": "Not Found",
    "m_camp": "Amache",
    "pop": 42,
    "lastaddress_lat": 0,
    "lastaddress_lng": 0,
    "m_camp_lat": 38.05,
    "m_camp_lng": -102.3
  },
  {
    "lastaddress": "West Covina",
    "m_originalstate": "CA",
    "m_camp": "Manzanar",
    "pop": 41,
    "lastaddress_lat": 34.0555,
    "lastaddress_lng": -117.9112,
    "m_camp_lat": 36.7333,
    "m_camp_lng": -118.0667
  },
  {
    "lastaddress": "Lyman",
    "m_originalstate": "WA",
    "m_camp": "Tulelake",
    "pop": 41,
    "lastaddress_lat": 48.523,
    "lastaddress_lng": -122.0634,
    "m_camp_lat": 41.8833,
    "m_camp_lng": -121.3667
  },
  {
    "lastaddress": "Signal Hill",
    "m_originalstate": "CA",
    "m_camp": "Manzanar",
    "pop": 41,
    "lastaddress_lat": 33.8029,
    "lastaddress_lng": -118.1681,
    "m_camp_lat": 36.7333,
    "m_camp_lng": -118.0667
  },
  {
    "lastaddress": "West Covina",
    "m_originalstate": "CA",
    "m_camp": "Jerome",
    "pop": 40,
    "lastaddress_lat": 34.0555,
    "lastaddress_lng": -117.9112,
    "m_camp_lat": 33.3833,
    "m_camp_lng": -91.4667
  },
  {
    "lastaddress": "Newport Beach",
    "m_originalstate": "CA",
    "m_camp": "Manzanar",
    "pop": 40,
    "lastaddress_lat": 33.6151,
    "lastaddress_lng": -117.8669,
    "m_camp_lat": 36.7333,
    "m_camp_lng": -118.0667
  },
  {
    "lastaddress": "Oakland",
    "m_originalstate": "CA",
    "m_camp": "Rohwer",
    "pop": 39,
    "lastaddress_lat": 37.7903,
    "lastaddress_lng": -122.2165,
    "m_camp_lat": 33.75,
    "m_camp_lng": -91.2667
  },
  {
    "lastaddress": "Salinas",
    "m_originalstate": "CA",
    "m_camp": "Jerome",
    "pop": 39,
    "lastaddress_lat": 36.6884,
    "lastaddress_lng": -121.6317,
    "m_camp_lat": 33.3833,
    "m_camp_lng": -91.4667
  },
  {
    "lastaddress": "Marysville",
    "m_originalstate": "CA",
    "m_camp": "Amache",
    "pop": 38,
    "lastaddress_lat": 39.1518,
    "lastaddress_lng": -121.5835,
    "m_camp_lat": 38.05,
    "m_camp_lng": -102.3
  },
  {
    "lastaddress": "Sunnyvale",
    "m_originalstate": "CA",
    "m_camp": "Gilariver",
    "pop": 37,
    "lastaddress_lat": 37.3836,
    "lastaddress_lng": -122.0256,
    "m_camp_lat": 32.1667,
    "m_camp_lng": -111.8667
  },
  {
    "lastaddress": "Fillmore",
    "m_originalstate": "CA",
    "m_camp": "Gilariver",
    "pop": 36,
    "lastaddress_lat": 34.3989,
    "lastaddress_lng": -118.9181,
    "m_camp_lat": 32.1667,
    "m_camp_lng": -111.8667
  },
  {
    "lastaddress": "Winlock",
    "m_originalstate": "WA",
    "m_camp": "Tulelake",
    "pop": 35,
    "lastaddress_lat": 46.4907,
    "lastaddress_lng": -122.9342,
    "m_camp_lat": 41.8833,
    "m_camp_lng": -121.3667
  },
  {
    "lastaddress": "Salinas",
    "m_originalstate": "CA",
    "m_camp": "Amache",
    "pop": 33,
    "lastaddress_lat": 36.6884,
    "lastaddress_lng": -121.6317,
    "m_camp_lat": 38.05,
    "m_camp_lng": -102.3
  },
  {
    "lastaddress": "Lodi",
    "m_originalstate": "CA",
    "m_camp": "Gilariver",
    "pop": 33,
    "lastaddress_lat": 38.1218,
    "lastaddress_lng": -121.2932,
    "m_camp_lat": 32.1667,
    "m_camp_lng": -111.8667
  },
  {
    "lastaddress": "Ukiah",
    "m_originalstate": "CA",
    "m_camp": "Amache",
    "pop": 32,
    "lastaddress_lat": 39.1463,
    "lastaddress_lng": -123.2105,
    "m_camp_lat": 38.05,
    "m_camp_lng": -102.3
  },
  {
    "lastaddress": "Isleton",
    "m_originalstate": "CA",
    "m_camp": "Rohwer",
    "pop": 32,
    "lastaddress_lat": 38.1617,
    "lastaddress_lng": -121.6051,
    "m_camp_lat": 33.75,
    "m_camp_lng": -91.2667
  },
  {
    "lastaddress": "Arroyo Grande",
    "m_originalstate": "CA",
    "m_camp": "Jerome",
    "pop": 32,
    "lastaddress_lat": 35.1241,
    "lastaddress_lng": -120.5845,
    "m_camp_lat": 33.3833,
    "m_camp_lng": -91.4667
  },
  {
    "lastaddress": "Sacramento",
    "m_originalstate": "CA",
    "m_camp": "Gilariver",
    "pop": 32,
    "lastaddress_lat": 38.5667,
    "lastaddress_lng": -121.4683,
    "m_camp_lat": 32.1667,
    "m_camp_lng": -111.8667
  },
  {
    "lastaddress": "Wheatland",
    "m_originalstate": "CA",
    "m_camp": "Tulelake",
    "pop": 31,
    "lastaddress_lat": 39.0287,
    "lastaddress_lng": -121.39,
    "m_camp_lat": 41.8833,
    "m_camp_lng": -121.3667
  },
  {
    "lastaddress": "Chico",
    "m_originalstate": "CA",
    "m_camp": "Tulelake",
    "pop": 30,
    "lastaddress_lat": 39.7575,
    "lastaddress_lng": -121.8152,
    "m_camp_lat": 41.8833,
    "m_camp_lng": -121.3667
  },
  {
    "lastaddress": "White Salmon",
    "m_originalstate": "WA",
    "m_camp": "Heartmountain",
    "pop": 29,
    "lastaddress_lat": 45.7283,
    "lastaddress_lng": -121.4856,
    "m_camp_lat": 44.5167,
    "m_camp_lng": -109.05
  },
  {
    "lastaddress": "San Jose",
    "m_originalstate": "CA",
    "m_camp": "Amache",
    "pop": 29,
    "lastaddress_lat": 37.3019,
    "lastaddress_lng": -121.8486,
    "m_camp_lat": 38.05,
    "m_camp_lng": -102.3
  },
  {
    "lastaddress": "Ojai",
    "m_originalstate": "CA",
    "m_camp": "Gilariver",
    "pop": 29,
    "lastaddress_lat": 34.4487,
    "lastaddress_lng": -119.2469,
    "m_camp_lat": 32.1667,
    "m_camp_lng": -111.8667
  },
  {
    "lastaddress": "Bellingham",
    "m_originalstate": "WA",
    "m_camp": "Tulelake",
    "pop": 29,
    "lastaddress_lat": 48.7543,
    "lastaddress_lng": -122.4687,
    "m_camp_lat": 41.8833,
    "m_camp_lng": -121.3667
  },
  {
    "lastaddress": "Torrance",
    "m_originalstate": "CA",
    "m_camp": "Tulelake",
    "pop": 29,
    "lastaddress_lat": 33.8346,
    "lastaddress_lng": -118.3417,
    "m_camp_lat": 41.8833,
    "m_camp_lng": -121.3667
  },
  {
    "lastaddress": "Chico",
    "m_originalstate": "CA",
    "m_camp": "Amache",
    "pop": 28,
    "lastaddress_lat": 39.7575,
    "lastaddress_lng": -121.8152,
    "m_camp_lat": 38.05,
    "m_camp_lng": -102.3
  },
  {
    "lastaddress": "Hawaii",
    "m_originalstate": "HI",
    "m_camp": "Topaz",
    "pop": 28,
    "lastaddress_lat": 0,
    "lastaddress_lng": 0,
    "m_camp_lat": 39.3833,
    "m_camp_lng": -112.7167
  },
  {
    "lastaddress": "Merced",
    "m_originalstate": "CA",
    "m_camp": "Amache",
    "pop": 28,
    "lastaddress_lat": 37.3057,
    "lastaddress_lng": -120.4778,
    "m_camp_lat": 38.05,
    "m_camp_lng": -102.3
  },
  {
    "lastaddress": "West Covina",
    "m_originalstate": "CA",
    "m_camp": "Gilariver",
    "pop": 28,
    "lastaddress_lat": 34.0555,
    "lastaddress_lng": -117.9112,
    "m_camp_lat": 32.1667,
    "m_camp_lng": -111.8667
  },
  {
    "lastaddress": "Wenatchee",
    "m_originalstate": "WA",
    "m_camp": "Heartmountain",
    "pop": 27,
    "lastaddress_lat": 47.4356,
    "lastaddress_lng": -120.3283,
    "m_camp_lat": 44.5167,
    "m_camp_lng": -109.05
  },
  {
    "lastaddress": "Sacramento",
    "m_originalstate": "CA",
    "m_camp": "Rohwer",
    "pop": 27,
    "lastaddress_lat": 38.5667,
    "lastaddress_lng": -121.4683,
    "m_camp_lat": 33.75,
    "m_camp_lng": -91.2667
  },
  {
    "lastaddress": "Richland",
    "m_originalstate": "WA",
    "m_camp": "Heartmountain",
    "pop": 27,
    "lastaddress_lat": 46.2824,
    "lastaddress_lng": -119.2938,
    "m_camp_lat": 44.5167,
    "m_camp_lng": -109.05
  },
  {
    "lastaddress": "Mesa",
    "m_originalstate": "AZ",
    "m_camp": "Poston",
    "pop": 26,
    "lastaddress_lat": 33.4017,
    "lastaddress_lng": -111.718,
    "m_camp_lat": 34.15,
    "m_camp_lng": -114.2833
  },
  {
    "lastaddress": "San Mateo",
    "m_originalstate": "CA",
    "m_camp": "Gilariver",
    "pop": 26,
    "lastaddress_lat": 37.5521,
    "lastaddress_lng": -122.3122,
    "m_camp_lat": 32.1667,
    "m_camp_lng": -111.8667
  },
  {
    "lastaddress": "Yuba City",
    "m_originalstate": "CA",
    "m_camp": "Tulelake",
    "pop": 26,
    "lastaddress_lat": 39.1357,
    "lastaddress_lng": -121.6381,
    "m_camp_lat": 41.8833,
    "m_camp_lng": -121.3667
  },
  {
    "lastaddress": "Stockton",
    "m_originalstate": "CA",
    "m_camp": "Manzanar",
    "pop": 26,
    "lastaddress_lat": 37.9765,
    "lastaddress_lng": -121.3109,
    "m_camp_lat": 36.7333,
    "m_camp_lng": -118.0667
  },
  {
    "lastaddress": "Sunnyvale",
    "m_originalstate": "CA",
    "m_camp": "Jerome",
    "pop": 25,
    "lastaddress_lat": 37.3836,
    "lastaddress_lng": -122.0256,
    "m_camp_lat": 33.3833,
    "m_camp_lng": -91.4667
  },
  {
    "lastaddress": "Morgan Hill",
    "m_originalstate": "CA",
    "m_camp": "Gilariver",
    "pop": 25,
    "lastaddress_lat": 37.1326,
    "lastaddress_lng": -121.6417,
    "m_camp_lat": 32.1667,
    "m_camp_lng": -111.8667
  },
  {
    "lastaddress": "San Diego",
    "m_originalstate": "CA",
    "m_camp": "Manzanar",
    "pop": 25,
    "lastaddress_lat": 32.8312,
    "lastaddress_lng": -117.1225,
    "m_camp_lat": 36.7333,
    "m_camp_lng": -118.0667
  },
  {
    "lastaddress": "Napa",
    "m_originalstate": "CA",
    "m_camp": "Amache",
    "pop": 25,
    "lastaddress_lat": 38.2976,
    "lastaddress_lng": -122.3011,
    "m_camp_lat": 38.05,
    "m_camp_lng": -102.3
  },
  {
    "lastaddress": "Lawndale",
    "m_originalstate": "CA",
    "m_camp": "Amache",
    "pop": 24,
    "lastaddress_lat": 33.8884,
    "lastaddress_lng": -118.3531,
    "m_camp_lat": 38.05,
    "m_camp_lng": -102.3
  },
  {
    "lastaddress": "Santa Clara",
    "m_originalstate": "CA",
    "m_camp": "Tulelake",
    "pop": 24,
    "lastaddress_lat": 37.3645,
    "lastaddress_lng": -121.968,
    "m_camp_lat": 41.8833,
    "m_camp_lng": -121.3667
  },
  {
    "lastaddress": "Fresno",
    "m_originalstate": "CA",
    "m_camp": "Tulelake",
    "pop": 24,
    "lastaddress_lat": 36.7831,
    "lastaddress_lng": -119.7941,
    "m_camp_lat": 41.8833,
    "m_camp_lng": -121.3667
  },
  {
    "lastaddress": "Signal Hill",
    "m_originalstate": "CA",
    "m_camp": "Poston",
    "pop": 23,
    "lastaddress_lat": 33.8029,
    "lastaddress_lng": -118.1681,
    "m_camp_lat": 34.15,
    "m_camp_lng": -114.2833
  },
  {
    "lastaddress": "Healdsburg",
    "m_originalstate": "CA",
    "m_camp": "Amache",
    "pop": 23,
    "lastaddress_lat": 38.6229,
    "lastaddress_lng": -122.8651,
    "m_camp_lat": 38.05,
    "m_camp_lng": -102.3
  },
  {
    "lastaddress": "Fullerton",
    "m_originalstate": "CA",
    "m_camp": "Gilariver",
    "pop": 23,
    "lastaddress_lat": 33.8841,
    "lastaddress_lng": -117.9279,
    "m_camp_lat": 32.1667,
    "m_camp_lng": -111.8667
  },
  {
    "lastaddress": "Willows",
    "m_originalstate": "CA",
    "m_camp": "Tulelake",
    "pop": 23,
    "lastaddress_lat": 39.5149,
    "lastaddress_lng": -122.1995,
    "m_camp_lat": 41.8833,
    "m_camp_lng": -121.3667
  },
  {
    "lastaddress": "Oroville",
    "m_originalstate": "CA",
    "m_camp": "Tulelake",
    "pop": 23,
    "lastaddress_lat": 39.4999,
    "lastaddress_lng": -121.5634,
    "m_camp_lat": 41.8833,
    "m_camp_lng": -121.3667
  },
  {
    "lastaddress": "Woodland",
    "m_originalstate": "CA",
    "m_camp": "Tulelake",
    "pop": 23,
    "lastaddress_lat": 38.6712,
    "lastaddress_lng": -121.75,
    "m_camp_lat": 41.8833,
    "m_camp_lng": -121.3667
  },
  {
    "lastaddress": "Salinas",
    "m_originalstate": "CA",
    "m_camp": "Topaz",
    "pop": 23,
    "lastaddress_lat": 36.6884,
    "lastaddress_lng": -121.6317,
    "m_camp_lat": 39.3833,
    "m_camp_lng": -112.7167
  },
  {
    "lastaddress": "Santa Ana",
    "m_originalstate": "CA",
    "m_camp": "Gilariver",
    "pop": 22,
    "lastaddress_lat": 33.7366,
    "lastaddress_lng": -117.8819,
    "m_camp_lat": 32.1667,
    "m_camp_lng": -111.8667
  },
  {
    "lastaddress": "San Jose",
    "m_originalstate": "CA",
    "m_camp": "Topaz",
    "pop": 22,
    "lastaddress_lat": 37.3019,
    "lastaddress_lng": -121.8486,
    "m_camp_lat": 39.3833,
    "m_camp_lng": -112.7167
  },
  {
    "lastaddress": "Coalinga",
    "m_originalstate": "CA",
    "m_camp": "Jerome",
    "pop": 22,
    "lastaddress_lat": 36.143,
    "lastaddress_lng": -120.3262,
    "m_camp_lat": 33.3833,
    "m_camp_lng": -91.4667
  },
  {
    "lastaddress": "Hoquiam",
    "m_originalstate": "WA",
    "m_camp": "Tulelake",
    "pop": 22,
    "lastaddress_lat": 46.9863,
    "lastaddress_lng": -123.9022,
    "m_camp_lat": 41.8833,
    "m_camp_lng": -121.3667
  },
  {
    "lastaddress": "Riverside",
    "m_originalstate": "CA",
    "m_camp": "Manzanar",
    "pop": 22,
    "lastaddress_lat": 33.9381,
    "lastaddress_lng": -117.3948,
    "m_camp_lat": 36.7333,
    "m_camp_lng": -118.0667
  },
  {
    "lastaddress": "Stockton",
    "m_originalstate": "CA",
    "m_camp": "Amache",
    "pop": 22,
    "lastaddress_lat": 37.9765,
    "lastaddress_lng": -121.3109,
    "m_camp_lat": 38.05,
    "m_camp_lng": -102.3
  },
  {
    "lastaddress": "Ojai",
    "m_originalstate": "CA",
    "m_camp": "Poston",
    "pop": 21,
    "lastaddress_lat": 34.4487,
    "lastaddress_lng": -119.2469,
    "m_camp_lat": 34.15,
    "m_camp_lng": -114.2833
  },
  {
    "lastaddress": "San Luis Obisbo",
    "m_originalstate": "CA",
    "m_camp": "Gilariver",
    "pop": 21,
    "lastaddress_lat": 0,
    "lastaddress_lng": 0,
    "m_camp_lat": 32.1667,
    "m_camp_lng": -111.8667
  },
  {
    "lastaddress": "Lompoc",
    "m_originalstate": "CA",
    "m_camp": "Poston",
    "pop": 21,
    "lastaddress_lat": 34.6618,
    "lastaddress_lng": -120.4714,
    "m_camp_lat": 34.15,
    "m_camp_lng": -114.2833
  },
  {
    "lastaddress": "Stockton",
    "m_originalstate": "CA",
    "m_camp": "Minidoka",
    "pop": 21,
    "lastaddress_lat": 37.9765,
    "lastaddress_lng": -121.3109,
    "m_camp_lat": 42.6667,
    "m_camp_lng": -114.2333
  },
  {
    "lastaddress": "Maui",
    "m_originalstate": "HI",
    "m_camp": "Topaz",
    "pop": 21,
    "lastaddress_lat": 0,
    "lastaddress_lng": 0,
    "m_camp_lat": 39.3833,
    "m_camp_lng": -112.7167
  },
  {
    "lastaddress": "Everett",
    "m_originalstate": "WA",
    "m_camp": "Tulelake",
    "pop": 20,
    "lastaddress_lat": 47.9525,
    "lastaddress_lng": -122.1669,
    "m_camp_lat": 41.8833,
    "m_camp_lng": -121.3667
  },
  {
    "lastaddress": "San Carlos",
    "m_originalstate": "CA",
    "m_camp": "Heartmountain",
    "pop": 20,
    "lastaddress_lat": 37.4982,
    "lastaddress_lng": -122.268,
    "m_camp_lat": 44.5167,
    "m_camp_lng": -109.05
  },
  {
    "lastaddress": "Selma",
    "m_originalstate": "CA",
    "m_camp": "Manzanar",
    "pop": 19,
    "lastaddress_lat": 36.5715,
    "lastaddress_lng": -119.6143,
    "m_camp_lat": 36.7333,
    "m_camp_lng": -118.0667
  },
  {
    "lastaddress": "Shelton",
    "m_originalstate": "WA",
    "m_camp": "Tulelake",
    "pop": 19,
    "lastaddress_lat": 47.2186,
    "lastaddress_lng": -123.112,
    "m_camp_lat": 41.8833,
    "m_camp_lng": -121.3667
  },
  {
    "lastaddress": "Fresno",
    "m_originalstate": "CA",
    "m_camp": "Rohwer",
    "pop": 19,
    "lastaddress_lat": 36.7831,
    "lastaddress_lng": -119.7941,
    "m_camp_lat": 33.75,
    "m_camp_lng": -91.2667
  },
  {
    "lastaddress": "San Mateo",
    "m_originalstate": "CA",
    "m_camp": "Tulelake",
    "pop": 19,
    "lastaddress_lat": 37.5521,
    "lastaddress_lng": -122.3122,
    "m_camp_lat": 41.8833,
    "m_camp_lng": -121.3667
  },
  {
    "lastaddress": "Santa Cruz",
    "m_originalstate": "CA",
    "m_camp": "Tulelake",
    "pop": 19,
    "lastaddress_lat": 36.9789,
    "lastaddress_lng": -122.0346,
    "m_camp_lat": 41.8833,
    "m_camp_lng": -121.3667
  },
  {
    "lastaddress": "Tulare",
    "m_originalstate": "CA",
    "m_camp": "Rohwer",
    "pop": 19,
    "lastaddress_lat": 36.1996,
    "lastaddress_lng": -119.34,
    "m_camp_lat": 33.75,
    "m_camp_lng": -91.2667
  },
  {
    "lastaddress": "Newport Beach",
    "m_originalstate": "CA",
    "m_camp": "Jerome",
    "pop": 19,
    "lastaddress_lat": 33.6151,
    "lastaddress_lng": -117.8669,
    "m_camp_lat": 33.3833,
    "m_camp_lng": -91.4667
  },
  {
    "lastaddress": "Morgan Hill",
    "m_originalstate": "CA",
    "m_camp": "Topaz",
    "pop": 19,
    "lastaddress_lat": 37.1326,
    "lastaddress_lng": -121.6417,
    "m_camp_lat": 39.3833,
    "m_camp_lng": -112.7167
  },
  {
    "lastaddress": "Carmel-By-The-Sea",
    "m_originalstate": "CA",
    "m_camp": "Poston",
    "pop": 18,
    "lastaddress_lat": 0,
    "lastaddress_lng": 0,
    "m_camp_lat": 34.15,
    "m_camp_lng": -114.2833
  },
  {
    "lastaddress": "Tustin",
    "m_originalstate": "CA",
    "m_camp": "Manzanar",
    "pop": 18,
    "lastaddress_lat": 33.7309,
    "lastaddress_lng": -117.8106,
    "m_camp_lat": 36.7333,
    "m_camp_lng": -118.0667
  },
  {
    "lastaddress": "Stockton",
    "m_originalstate": "CA",
    "m_camp": "Poston",
    "pop": 18,
    "lastaddress_lat": 37.9765,
    "lastaddress_lng": -121.3109,
    "m_camp_lat": 34.15,
    "m_camp_lng": -114.2833
  },
  {
    "lastaddress": "Seattle",
    "m_originalstate": "WA",
    "m_camp": "Heartmountain",
    "pop": 18,
    "lastaddress_lat": 47.6211,
    "lastaddress_lng": -122.3244,
    "m_camp_lat": 44.5167,
    "m_camp_lng": -109.05
  },
  {
    "lastaddress": "Pittsburg",
    "m_originalstate": "CA",
    "m_camp": "Gilariver",
    "pop": 18,
    "lastaddress_lat": 38.0182,
    "lastaddress_lng": -121.8964,
    "m_camp_lat": 32.1667,
    "m_camp_lng": -111.8667
  },
  {
    "lastaddress": "Tustin",
    "m_originalstate": "CA",
    "m_camp": "Rohwer",
    "pop": 17,
    "lastaddress_lat": 33.7309,
    "lastaddress_lng": -117.8106,
    "m_camp_lat": 33.75,
    "m_camp_lng": -91.2667
  },
  {
    "lastaddress": "San Diego",
    "m_originalstate": "CA",
    "m_camp": "Jerome",
    "pop": 17,
    "lastaddress_lat": 32.8312,
    "lastaddress_lng": -117.1225,
    "m_camp_lat": 33.3833,
    "m_camp_lng": -91.4667
  },
  {
    "lastaddress": "Stockton",
    "m_originalstate": "CA",
    "m_camp": "Topaz",
    "pop": 16,
    "lastaddress_lat": 37.9765,
    "lastaddress_lng": -121.3109,
    "m_camp_lat": 39.3833,
    "m_camp_lng": -112.7167
  },
  {
    "lastaddress": "Roseville",
    "m_originalstate": "CA",
    "m_camp": "Tulelake",
    "pop": 16,
    "lastaddress_lat": 38.7703,
    "lastaddress_lng": -121.3196,
    "m_camp_lat": 41.8833,
    "m_camp_lng": -121.3667
  },
  {
    "lastaddress": "San Diego",
    "m_originalstate": "CA",
    "m_camp": "Heartmountain",
    "pop": 16,
    "lastaddress_lat": 32.8312,
    "lastaddress_lng": -117.1225,
    "m_camp_lat": 44.5167,
    "m_camp_lng": -109.05
  },
  {
    "lastaddress": "Madera",
    "m_originalstate": "CA",
    "m_camp": "Gilariver",
    "pop": 16,
    "lastaddress_lat": 36.9631,
    "lastaddress_lng": -120.0782,
    "m_camp_lat": 32.1667,
    "m_camp_lng": -111.8667
  },
  {
    "lastaddress": "San Mateo",
    "m_originalstate": "CA",
    "m_camp": "Jerome",
    "pop": 16,
    "lastaddress_lat": 37.5521,
    "lastaddress_lng": -122.3122,
    "m_camp_lat": 33.3833,
    "m_camp_lng": -91.4667
  },
  {
    "lastaddress": "Chehalis",
    "m_originalstate": "WA",
    "m_camp": "Tulelake",
    "pop": 16,
    "lastaddress_lat": 46.6638,
    "lastaddress_lng": -122.965,
    "m_camp_lat": 41.8833,
    "m_camp_lng": -121.3667
  },
  {
    "lastaddress": "Watsonville",
    "m_originalstate": "CA",
    "m_camp": "Jerome",
    "pop": 15,
    "lastaddress_lat": 36.9206,
    "lastaddress_lng": -121.7706,
    "m_camp_lat": 33.3833,
    "m_camp_lng": -91.4667
  },
  {
    "lastaddress": "Longview",
    "m_originalstate": "WA",
    "m_camp": "Minidoka",
    "pop": 15,
    "lastaddress_lat": 46.1461,
    "lastaddress_lng": -122.9629,
    "m_camp_lat": 42.6667,
    "m_camp_lng": -114.2333
  },
  {
    "lastaddress": "Palo Alto",
    "m_originalstate": "CA",
    "m_camp": "Jerome",
    "pop": 15,
    "lastaddress_lat": 37.3913,
    "lastaddress_lng": -122.1468,
    "m_camp_lat": 33.3833,
    "m_camp_lng": -91.4667
  },
  {
    "lastaddress": "Kelso",
    "m_originalstate": "WA",
    "m_camp": "Tulelake",
    "pop": 15,
    "lastaddress_lat": 46.1236,
    "lastaddress_lng": -122.891,
    "m_camp_lat": 41.8833,
    "m_camp_lng": -121.3667
  },
  {
    "lastaddress": "Sultan",
    "m_originalstate": "WA",
    "m_camp": "Tulelake",
    "pop": 15,
    "lastaddress_lat": 47.871,
    "lastaddress_lng": -121.8043,
    "m_camp_lat": 41.8833,
    "m_camp_lng": -121.3667
  },
  {
    "lastaddress": "Tehama",
    "m_originalstate": "CA",
    "m_camp": "Amache",
    "pop": 15,
    "lastaddress_lat": 40.0218,
    "lastaddress_lng": -122.1269,
    "m_camp_lat": 38.05,
    "m_camp_lng": -102.3
  },
  {
    "lastaddress": "Oakland",
    "m_originalstate": "CA",
    "m_camp": "Minidoka",
    "pop": 15,
    "lastaddress_lat": 37.7903,
    "lastaddress_lng": -122.2165,
    "m_camp_lat": 42.6667,
    "m_camp_lng": -114.2333
  },
  {
    "lastaddress": "Santa Clara",
    "m_originalstate": "CA",
    "m_camp": "Gilariver",
    "pop": 15,
    "lastaddress_lat": 37.3645,
    "lastaddress_lng": -121.968,
    "m_camp_lat": 32.1667,
    "m_camp_lng": -111.8667
  },
  {
    "lastaddress": "Los Angeles",
    "m_originalstate": "CA",
    "m_camp": "Minidoka",
    "pop": 14,
    "lastaddress_lat": 34.1139,
    "lastaddress_lng": -118.4068,
    "m_camp_lat": 42.6667,
    "m_camp_lng": -114.2333
  },
  {
    "lastaddress": "Red Bluff",
    "m_originalstate": "CA",
    "m_camp": "Amache",
    "pop": 14,
    "lastaddress_lat": 40.1735,
    "lastaddress_lng": -122.2413,
    "m_camp_lat": 38.05,
    "m_camp_lng": -102.3
  },
  {
    "lastaddress": "Palo Alto",
    "m_originalstate": "CA",
    "m_camp": "Tulelake",
    "pop": 14,
    "lastaddress_lat": 37.3913,
    "lastaddress_lng": -122.1468,
    "m_camp_lat": 41.8833,
    "m_camp_lng": -121.3667
  },
  {
    "lastaddress": "Walnut Creek",
    "m_originalstate": "CA",
    "m_camp": "Amache",
    "pop": 14,
    "lastaddress_lat": 37.9024,
    "lastaddress_lng": -122.0398,
    "m_camp_lat": 38.05,
    "m_camp_lng": -102.3
  },
  {
    "lastaddress": "Santa Ana",
    "m_originalstate": "CA",
    "m_camp": "Rohwer",
    "pop": 14,
    "lastaddress_lat": 33.7366,
    "lastaddress_lng": -117.8819,
    "m_camp_lat": 33.75,
    "m_camp_lng": -91.2667
  },
  {
    "lastaddress": "Taft",
    "m_originalstate": "CA",
    "m_camp": "Rohwer",
    "pop": 14,
    "lastaddress_lat": 35.1267,
    "lastaddress_lng": -119.4242,
    "m_camp_lat": 33.75,
    "m_camp_lng": -91.2667
  },
  {
    "lastaddress": "Walnut Creek",
    "m_originalstate": "CA",
    "m_camp": "Topaz",
    "pop": 13,
    "lastaddress_lat": 37.9024,
    "lastaddress_lng": -122.0398,
    "m_camp_lat": 39.3833,
    "m_camp_lng": -112.7167
  },
  {
    "lastaddress": "Morgan Hill",
    "m_originalstate": "CA",
    "m_camp": "Tulelake",
    "pop": 13,
    "lastaddress_lat": 37.1326,
    "lastaddress_lng": -121.6417,
    "m_camp_lat": 41.8833,
    "m_camp_lng": -121.3667
  },
  {
    "lastaddress": "Port Townsend",
    "m_originalstate": "WA",
    "m_camp": "Tulelake",
    "pop": 13,
    "lastaddress_lat": 48.122,
    "lastaddress_lng": -122.7872,
    "m_camp_lat": 41.8833,
    "m_camp_lng": -121.3667
  },
  {
    "lastaddress": "San Leandro",
    "m_originalstate": "CA",
    "m_camp": "Tulelake",
    "pop": 13,
    "lastaddress_lat": 37.7071,
    "lastaddress_lng": -122.1601,
    "m_camp_lat": 41.8833,
    "m_camp_lng": -121.3667
  },
  {
    "lastaddress": "San Diego",
    "m_originalstate": "CA",
    "m_camp": "Gilariver",
    "pop": 13,
    "lastaddress_lat": 32.8312,
    "lastaddress_lng": -117.1225,
    "m_camp_lat": 32.1667,
    "m_camp_lng": -111.8667
  },
  {
    "lastaddress": "Vacaville",
    "m_originalstate": "CA",
    "m_camp": "Tulelake",
    "pop": 13,
    "lastaddress_lat": 38.359,
    "lastaddress_lng": -121.968,
    "m_camp_lat": 41.8833,
    "m_camp_lng": -121.3667
  },
  {
    "lastaddress": "San Jacinto",
    "m_originalstate": "CA",
    "m_camp": "Manzanar",
    "pop": 13,
    "lastaddress_lat": 33.797,
    "lastaddress_lng": -116.9916,
    "m_camp_lat": 36.7333,
    "m_camp_lng": -118.0667
  },
  {
    "lastaddress": "Fresno",
    "m_originalstate": "CA",
    "m_camp": "Amache",
    "pop": 13,
    "lastaddress_lat": 36.7831,
    "lastaddress_lng": -119.7941,
    "m_camp_lat": 38.05,
    "m_camp_lng": -102.3
  },
  {
    "lastaddress": "Taft",
    "m_originalstate": "CA",
    "m_camp": "Gilariver",
    "pop": 13,
    "lastaddress_lat": 35.1267,
    "lastaddress_lng": -119.4242,
    "m_camp_lat": 32.1667,
    "m_camp_lng": -111.8667
  },
  {
    "lastaddress": "Tulare",
    "m_originalstate": "CA",
    "m_camp": "Tulelake",
    "pop": 13,
    "lastaddress_lat": 36.1996,
    "lastaddress_lng": -119.34,
    "m_camp_lat": 41.8833,
    "m_camp_lng": -121.3667
  },
  {
    "lastaddress": "Palm Springs",
    "m_originalstate": "CA",
    "m_camp": "Poston",
    "pop": 13,
    "lastaddress_lat": 33.8017,
    "lastaddress_lng": -116.5382,
    "m_camp_lat": 34.15,
    "m_camp_lng": -114.2833
  },
  {
    "lastaddress": "Westmorland",
    "m_originalstate": "CA",
    "m_camp": "Gilariver",
    "pop": 12,
    "lastaddress_lat": 33.0389,
    "lastaddress_lng": -115.6223,
    "m_camp_lat": 32.1667,
    "m_camp_lng": -111.8667
  },
  {
    "lastaddress": "Red Bluff",
    "m_originalstate": "CA",
    "m_camp": "Tulelake",
    "pop": 12,
    "lastaddress_lat": 40.1735,
    "lastaddress_lng": -122.2413,
    "m_camp_lat": 41.8833,
    "m_camp_lng": -121.3667
  },
  {
    "lastaddress": "Tulare",
    "m_originalstate": "CA",
    "m_camp": "Heartmountain",
    "pop": 12,
    "lastaddress_lat": 36.1996,
    "lastaddress_lng": -119.34,
    "m_camp_lat": 44.5167,
    "m_camp_lng": -109.05
  },
  {
    "lastaddress": "Piedmont",
    "m_originalstate": "CA",
    "m_camp": "Tulelake",
    "pop": 12,
    "lastaddress_lat": 37.8226,
    "lastaddress_lng": -122.23,
    "m_camp_lat": 41.8833,
    "m_camp_lng": -121.3667
  },
  {
    "lastaddress": "Sacramento",
    "m_originalstate": "CA",
    "m_camp": "Topaz",
    "pop": 12,
    "lastaddress_lat": 38.5667,
    "lastaddress_lng": -121.4683,
    "m_camp_lat": 39.3833,
    "m_camp_lng": -112.7167
  },
  {
    "lastaddress": "Arroyo Grande",
    "m_originalstate": "CA",
    "m_camp": "Manzanar",
    "pop": 12,
    "lastaddress_lat": 35.1241,
    "lastaddress_lng": -120.5845,
    "m_camp_lat": 36.7333,
    "m_camp_lng": -118.0667
  },
  {
    "lastaddress": "Fresno",
    "m_originalstate": "CA",
    "m_camp": "Topaz",
    "pop": 12,
    "lastaddress_lat": 36.7831,
    "lastaddress_lng": -119.7941,
    "m_camp_lat": 39.3833,
    "m_camp_lng": -112.7167
  },
  {
    "lastaddress": "Livermore",
    "m_originalstate": "CA",
    "m_camp": "Gilariver",
    "pop": 12,
    "lastaddress_lat": 37.6862,
    "lastaddress_lng": -121.7608,
    "m_camp_lat": 32.1667,
    "m_camp_lng": -111.8667
  },
  {
    "lastaddress": "Turlock",
    "m_originalstate": "CA",
    "m_camp": "Rohwer",
    "pop": 12,
    "lastaddress_lat": 37.5053,
    "lastaddress_lng": -120.8588,
    "m_camp_lat": 33.75,
    "m_camp_lng": -91.2667
  },
  {
    "lastaddress": "Santa Paula",
    "m_originalstate": "CA",
    "m_camp": "Manzanar",
    "pop": 12,
    "lastaddress_lat": 34.3521,
    "lastaddress_lng": -119.0698,
    "m_camp_lat": 36.7333,
    "m_camp_lng": -118.0667
  },
  {
    "lastaddress": "Modesto",
    "m_originalstate": "CA",
    "m_camp": "Rohwer",
    "pop": 12,
    "lastaddress_lat": 37.6374,
    "lastaddress_lng": -121.0028,
    "m_camp_lat": 33.75,
    "m_camp_lng": -91.2667
  },
  {
    "lastaddress": "San Rafael",
    "m_originalstate": "CA",
    "m_camp": "Amache",
    "pop": 12,
    "lastaddress_lat": 37.9905,
    "lastaddress_lng": -122.5222,
    "m_camp_lat": 38.05,
    "m_camp_lng": -102.3
  },
  {
    "lastaddress": "Lindsay",
    "m_originalstate": "CA",
    "m_camp": "Gilariver",
    "pop": 12,
    "lastaddress_lat": 36.2082,
    "lastaddress_lng": -119.0897,
    "m_camp_lat": 32.1667,
    "m_camp_lng": -111.8667
  },
  {
    "lastaddress": "Wheatland",
    "m_originalstate": "CA",
    "m_camp": "Amache",
    "pop": 12,
    "lastaddress_lat": 39.0287,
    "lastaddress_lng": -121.39,
    "m_camp_lat": 38.05,
    "m_camp_lng": -102.3
  },
  {
    "lastaddress": "Tulare",
    "m_originalstate": "CA",
    "m_camp": "Manzanar",
    "pop": 11,
    "lastaddress_lat": 36.1996,
    "lastaddress_lng": -119.34,
    "m_camp_lat": 36.7333,
    "m_camp_lng": -118.0667
  },
  {
    "lastaddress": "San Jose",
    "m_originalstate": "CA",
    "m_camp": "Jerome",
    "pop": 11,
    "lastaddress_lat": 37.3019,
    "lastaddress_lng": -121.8486,
    "m_camp_lat": 33.3833,
    "m_camp_lng": -91.4667
  },
  {
    "lastaddress": "Puyallup",
    "m_originalstate": "WA",
    "m_camp": "Tulelake",
    "pop": 11,
    "lastaddress_lat": 47.1794,
    "lastaddress_lng": -122.2902,
    "m_camp_lat": 41.8833,
    "m_camp_lng": -121.3667
  },
  {
    "lastaddress": "Willits",
    "m_originalstate": "CA",
    "m_camp": "Amache",
    "pop": 11,
    "lastaddress_lat": 39.4047,
    "lastaddress_lng": -123.3494,
    "m_camp_lat": 38.05,
    "m_camp_lng": -102.3
  },
  {
    "lastaddress": "Santa Ana",
    "m_originalstate": "CA",
    "m_camp": "Manzanar",
    "pop": 11,
    "lastaddress_lat": 33.7366,
    "lastaddress_lng": -117.8819,
    "m_camp_lat": 36.7333,
    "m_camp_lng": -118.0667
  },
  {
    "lastaddress": "Toppenish",
    "m_originalstate": "WA",
    "m_camp": "Minidoka",
    "pop": 11,
    "lastaddress_lat": 46.3806,
    "lastaddress_lng": -120.3123,
    "m_camp_lat": 42.6667,
    "m_camp_lng": -114.2333
  },
  {
    "lastaddress": "Santa Rosa",
    "m_originalstate": "CA",
    "m_camp": "Tulelake",
    "pop": 11,
    "lastaddress_lat": 38.4458,
    "lastaddress_lng": -122.7067,
    "m_camp_lat": 41.8833,
    "m_camp_lng": -121.3667
  },
  {
    "lastaddress": "San Juan",
    "m_originalstate": "CA",
    "m_camp": "Tulelake",
    "pop": 11,
    "lastaddress_lat": 0,
    "lastaddress_lng": 0,
    "m_camp_lat": 41.8833,
    "m_camp_lng": -121.3667
  },
  {
    "lastaddress": "San Joaquin",
    "m_originalstate": "CA",
    "m_camp": "Rohwer",
    "pop": 11,
    "lastaddress_lat": 36.6057,
    "lastaddress_lng": -120.1897,
    "m_camp_lat": 33.75,
    "m_camp_lng": -91.2667
  },
  {
    "lastaddress": "Yacolt",
    "m_originalstate": "WA",
    "m_camp": "Minidoka",
    "pop": 11,
    "lastaddress_lat": 45.8653,
    "lastaddress_lng": -122.4062,
    "m_camp_lat": 42.6667,
    "m_camp_lng": -114.2333
  },
  {
    "lastaddress": "Sedro-Woodley",
    "m_originalstate": "WA",
    "m_camp": "Tulelake",
    "pop": 11,
    "lastaddress_lat": 0,
    "lastaddress_lng": 0,
    "m_camp_lat": 41.8833,
    "m_camp_lng": -121.3667
  },
  {
    "lastaddress": "Piedmont",
    "m_originalstate": "CA",
    "m_camp": "Rohwer",
    "pop": 11,
    "lastaddress_lat": 37.8226,
    "lastaddress_lng": -122.23,
    "m_camp_lat": 33.75,
    "m_camp_lng": -91.2667
  },
  {
    "lastaddress": "Honeyville",
    "m_originalstate": "UT",
    "m_camp": "Topaz",
    "pop": 11,
    "lastaddress_lat": 41.6361,
    "lastaddress_lng": -112.0857,
    "m_camp_lat": 39.3833,
    "m_camp_lng": -112.7167
  },
  {
    "lastaddress": "Tukwila",
    "m_originalstate": "WA",
    "m_camp": "Minidoka",
    "pop": 11,
    "lastaddress_lat": 47.4749,
    "lastaddress_lng": -122.2727,
    "m_camp_lat": 42.6667,
    "m_camp_lng": -114.2333
  },
  {
    "lastaddress": "San Mateo",
    "m_originalstate": "CA",
    "m_camp": "Heartmountain",
    "pop": 11,
    "lastaddress_lat": 37.5521,
    "lastaddress_lng": -122.3122,
    "m_camp_lat": 44.5167,
    "m_camp_lng": -109.05
  },
  {
    "lastaddress": "San Leandro",
    "m_originalstate": "CA",
    "m_camp": "Gilariver",
    "pop": 11,
    "lastaddress_lat": 37.7071,
    "lastaddress_lng": -122.1601,
    "m_camp_lat": 32.1667,
    "m_camp_lng": -111.8667
  },
  {
    "lastaddress": "San Luis Obisbo",
    "m_originalstate": "CA",
    "m_camp": "Tulelake",
    "pop": 11,
    "lastaddress_lat": 0,
    "lastaddress_lng": 0,
    "m_camp_lat": 41.8833,
    "m_camp_lng": -121.3667
  },
  {
    "lastaddress": "Taft",
    "m_originalstate": "CA",
    "m_camp": "Manzanar",
    "pop": 11,
    "lastaddress_lat": 35.1267,
    "lastaddress_lng": -119.4242,
    "m_camp_lat": 36.7333,
    "m_camp_lng": -118.0667
  },
  {
    "lastaddress": "Clovis",
    "m_originalstate": "NM",
    "m_camp": "Topaz",
    "pop": 10,
    "lastaddress_lat": 34.4376,
    "lastaddress_lng": -103.1923,
    "m_camp_lat": 39.3833,
    "m_camp_lng": -112.7167
  },
  {
    "lastaddress": "Salinas",
    "m_originalstate": "CA",
    "m_camp": "Rohwer",
    "pop": 10,
    "lastaddress_lat": 36.6884,
    "lastaddress_lng": -121.6317,
    "m_camp_lat": 33.75,
    "m_camp_lng": -91.2667
  },
  {
    "lastaddress": "Newport Beach",
    "m_originalstate": "CA",
    "m_camp": "Gilariver",
    "pop": 10,
    "lastaddress_lat": 33.6151,
    "lastaddress_lng": -117.8669,
    "m_camp_lat": 32.1667,
    "m_camp_lng": -111.8667
  },
  {
    "lastaddress": "Clovis",
    "m_originalstate": "NM",
    "m_camp": "Gilariver",
    "pop": 10,
    "lastaddress_lat": 34.4376,
    "lastaddress_lng": -103.1923,
    "m_camp_lat": 32.1667,
    "m_camp_lng": -111.8667
  },
  {
    "lastaddress": "Lemoore",
    "m_originalstate": "CA",
    "m_camp": "Gilariver",
    "pop": 10,
    "lastaddress_lat": 36.2949,
    "lastaddress_lng": -119.7983,
    "m_camp_lat": 32.1667,
    "m_camp_lng": -111.8667
  },
  {
    "lastaddress": "Santa Cruz",
    "m_originalstate": "CA",
    "m_camp": "Heartmountain",
    "pop": 10,
    "lastaddress_lat": 36.9789,
    "lastaddress_lng": -122.0346,
    "m_camp_lat": 44.5167,
    "m_camp_lng": -109.05
  },
  {
    "lastaddress": "Los Banos",
    "m_originalstate": "CA",
    "m_camp": "Gilariver",
    "pop": 10,
    "lastaddress_lat": 37.063,
    "lastaddress_lng": -120.8406,
    "m_camp_lat": 32.1667,
    "m_camp_lng": -111.8667
  },
  {
    "lastaddress": "Santa Paula",
    "m_originalstate": "CA",
    "m_camp": "Poston",
    "pop": 10,
    "lastaddress_lat": 34.3521,
    "lastaddress_lng": -119.0698,
    "m_camp_lat": 34.15,
    "m_camp_lng": -114.2833
  },
  {
    "lastaddress": "Torrance",
    "m_originalstate": "CA",
    "m_camp": "Topaz",
    "pop": 10,
    "lastaddress_lat": 33.8346,
    "lastaddress_lng": -118.3417,
    "m_camp_lat": 39.3833,
    "m_camp_lng": -112.7167
  },
  {
    "lastaddress": "Los Banos",
    "m_originalstate": "CA",
    "m_camp": "Jerome",
    "pop": 10,
    "lastaddress_lat": 37.063,
    "lastaddress_lng": -120.8406,
    "m_camp_lat": 33.3833,
    "m_camp_lng": -91.4667
  },
  {
    "lastaddress": "San Mateo",
    "m_originalstate": "CA",
    "m_camp": "Rohwer",
    "pop": 10,
    "lastaddress_lat": 37.5521,
    "lastaddress_lng": -122.3122,
    "m_camp_lat": 33.75,
    "m_camp_lng": -91.2667
  },
  {
    "lastaddress": "Sequim",
    "m_originalstate": "WA",
    "m_camp": "Tulelake",
    "pop": 10,
    "lastaddress_lat": 48.0746,
    "lastaddress_lng": -123.0944,
    "m_camp_lat": 41.8833,
    "m_camp_lng": -121.3667
  },
  {
    "lastaddress": "Richmond",
    "m_originalstate": "CA",
    "m_camp": "Rohwer",
    "pop": 9,
    "lastaddress_lat": 37.9477,
    "lastaddress_lng": -122.339,
    "m_camp_lat": 33.75,
    "m_camp_lng": -91.2667
  },
  {
    "lastaddress": "South Gate",
    "m_originalstate": "CA",
    "m_camp": "Minidoka",
    "pop": 9,
    "lastaddress_lat": 33.9448,
    "lastaddress_lng": -118.1926,
    "m_camp_lat": 42.6667,
    "m_camp_lng": -114.2333
  },
  {
    "lastaddress": "Walnut Creek",
    "m_originalstate": "CA",
    "m_camp": "Tulelake",
    "pop": 9,
    "lastaddress_lat": 37.9024,
    "lastaddress_lng": -122.0398,
    "m_camp_lat": 41.8833,
    "m_camp_lng": -121.3667
  },
  {
    "lastaddress": "Lodi",
    "m_originalstate": "CA",
    "m_camp": "Minidoka",
    "pop": 9,
    "lastaddress_lat": 38.1218,
    "lastaddress_lng": -121.2932,
    "m_camp_lat": 42.6667,
    "m_camp_lng": -114.2333
  },
  {
    "lastaddress": "Ross",
    "m_originalstate": "CA",
    "m_camp": "Amache",
    "pop": 9,
    "lastaddress_lat": 37.9638,
    "lastaddress_lng": -122.5615,
    "m_camp_lat": 38.05,
    "m_camp_lng": -102.3
  },
  {
    "lastaddress": "Arroyo Grande",
    "m_originalstate": "CA",
    "m_camp": "Tulelake",
    "pop": 9,
    "lastaddress_lat": 35.1241,
    "lastaddress_lng": -120.5845,
    "m_camp_lat": 41.8833,
    "m_camp_lng": -121.3667
  },
  {
    "lastaddress": "Sonoma",
    "m_originalstate": "CA",
    "m_camp": "Poston",
    "pop": 9,
    "lastaddress_lat": 38.2902,
    "lastaddress_lng": -122.4598,
    "m_camp_lat": 34.15,
    "m_camp_lng": -114.2833
  },
  {
    "lastaddress": "Roseville",
    "m_originalstate": "CA",
    "m_camp": "Poston",
    "pop": 9,
    "lastaddress_lat": 38.7703,
    "lastaddress_lng": -121.3196,
    "m_camp_lat": 34.15,
    "m_camp_lng": -114.2833
  },
  {
    "lastaddress": "Signal Hill",
    "m_originalstate": "CA",
    "m_camp": "Tulelake",
    "pop": 9,
    "lastaddress_lat": 33.8029,
    "lastaddress_lng": -118.1681,
    "m_camp_lat": 41.8833,
    "m_camp_lng": -121.3667
  },
  {
    "lastaddress": "Taft",
    "m_originalstate": "CA",
    "m_camp": "Topaz",
    "pop": 9,
    "lastaddress_lat": 35.1267,
    "lastaddress_lng": -119.4242,
    "m_camp_lat": 39.3833,
    "m_camp_lng": -112.7167
  },
  {
    "lastaddress": "Walnut Creek",
    "m_originalstate": "CA",
    "m_camp": "Rohwer",
    "pop": 8,
    "lastaddress_lat": 37.9024,
    "lastaddress_lng": -122.0398,
    "m_camp_lat": 33.75,
    "m_camp_lng": -91.2667
  },
  {
    "lastaddress": "Fullerton",
    "m_originalstate": "CA",
    "m_camp": "Heartmountain",
    "pop": 8,
    "lastaddress_lat": 33.8841,
    "lastaddress_lng": -117.9279,
    "m_camp_lat": 44.5167,
    "m_camp_lng": -109.05
  },
  {
    "lastaddress": "Santa Paula",
    "m_originalstate": "CA",
    "m_camp": "Amache",
    "pop": 8,
    "lastaddress_lat": 34.3521,
    "lastaddress_lng": -119.0698,
    "m_camp_lat": 38.05,
    "m_camp_lng": -102.3
  },
  {
    "lastaddress": "Sunnyvale",
    "m_originalstate": "CA",
    "m_camp": "Amache",
    "pop": 8,
    "lastaddress_lat": 37.3836,
    "lastaddress_lng": -122.0256,
    "m_camp_lat": 38.05,
    "m_camp_lng": -102.3
  },
  {
    "lastaddress": "Needles",
    "m_originalstate": "CA",
    "m_camp": "Heartmountain",
    "pop": 8,
    "lastaddress_lat": 34.8164,
    "lastaddress_lng": -114.6189,
    "m_camp_lat": 44.5167,
    "m_camp_lng": -109.05
  },
  {
    "lastaddress": "Santa Barbara",
    "m_originalstate": "CA",
    "m_camp": "Poston",
    "pop": 8,
    "lastaddress_lat": 34.4285,
    "lastaddress_lng": -119.7202,
    "m_camp_lat": 34.15,
    "m_camp_lng": -114.2833
  },
  {
    "lastaddress": "Raymond",
    "m_originalstate": "WA",
    "m_camp": "Tulelake",
    "pop": 8,
    "lastaddress_lat": 46.6839,
    "lastaddress_lng": -123.738,
    "m_camp_lat": 41.8833,
    "m_camp_lng": -121.3667
  },
  {
    "lastaddress": "Santa Clara",
    "m_originalstate": "CA",
    "m_camp": "Amache",
    "pop": 8,
    "lastaddress_lat": 37.3645,
    "lastaddress_lng": -121.968,
    "m_camp_lat": 38.05,
    "m_camp_lng": -102.3
  },
  {
    "lastaddress": "Santa Cruz",
    "m_originalstate": "CA",
    "m_camp": "Jerome",
    "pop": 8,
    "lastaddress_lat": 36.9789,
    "lastaddress_lng": -122.0346,
    "m_camp_lat": 33.3833,
    "m_camp_lng": -91.4667
  },
  {
    "lastaddress": "Zillah",
    "m_originalstate": "WA",
    "m_camp": "Minidoka",
    "pop": 8,
    "lastaddress_lat": 46.4084,
    "lastaddress_lng": -120.2725,
    "m_camp_lat": 42.6667,
    "m_camp_lng": -114.2333
  },
  {
    "lastaddress": "Salinas",
    "m_originalstate": "CA",
    "m_camp": "Manzanar",
    "pop": 8,
    "lastaddress_lat": 36.6884,
    "lastaddress_lng": -121.6317,
    "m_camp_lat": 36.7333,
    "m_camp_lng": -118.0667
  },
  {
    "lastaddress": "Santa Paula",
    "m_originalstate": "CA",
    "m_camp": "Heartmountain",
    "pop": 8,
    "lastaddress_lat": 34.3521,
    "lastaddress_lng": -119.0698,
    "m_camp_lat": 44.5167,
    "m_camp_lng": -109.05
  },
  {
    "lastaddress": "Palo Alto",
    "m_originalstate": "CA",
    "m_camp": "Manzanar",
    "pop": 8,
    "lastaddress_lat": 37.3913,
    "lastaddress_lng": -122.1468,
    "m_camp_lat": 36.7333,
    "m_camp_lng": -118.0667
  },
  {
    "lastaddress": "Watsonville",
    "m_originalstate": "CA",
    "m_camp": "Amache",
    "pop": 8,
    "lastaddress_lat": 36.9206,
    "lastaddress_lng": -121.7706,
    "m_camp_lat": 38.05,
    "m_camp_lng": -102.3
  },
  {
    "lastaddress": "Taft",
    "m_originalstate": "CA",
    "m_camp": "Amache",
    "pop": 8,
    "lastaddress_lat": 35.1267,
    "lastaddress_lng": -119.4242,
    "m_camp_lat": 38.05,
    "m_camp_lng": -102.3
  },
  {
    "lastaddress": "San Joaquin",
    "m_originalstate": "CA",
    "m_camp": "Amache",
    "pop": 8,
    "lastaddress_lat": 36.6057,
    "lastaddress_lng": -120.1897,
    "m_camp_lat": 38.05,
    "m_camp_lng": -102.3
  },
  {
    "lastaddress": "Yuma",
    "m_originalstate": "AZ",
    "m_camp": "Poston",
    "pop": 8,
    "lastaddress_lat": 32.5992,
    "lastaddress_lng": -114.5488,
    "m_camp_lat": 34.15,
    "m_camp_lng": -114.2833
  },
  {
    "lastaddress": "Santa Ana",
    "m_originalstate": "CA",
    "m_camp": "Tulelake",
    "pop": 8,
    "lastaddress_lat": 33.7366,
    "lastaddress_lng": -117.8819,
    "m_camp_lat": 41.8833,
    "m_camp_lng": -121.3667
  },
  {
    "lastaddress": "Vallejo",
    "m_originalstate": "CA",
    "m_camp": "Gilariver",
    "pop": 8,
    "lastaddress_lat": 38.1133,
    "lastaddress_lng": -122.2358,
    "m_camp_lat": 32.1667,
    "m_camp_lng": -111.8667
  },
  {
    "lastaddress": "Richmond",
    "m_originalstate": "CA",
    "m_camp": "Gilariver",
    "pop": 8,
    "lastaddress_lat": 37.9477,
    "lastaddress_lng": -122.339,
    "m_camp_lat": 32.1667,
    "m_camp_lng": -111.8667
  },
  {
    "lastaddress": "Morgan Hill",
    "m_originalstate": "CA",
    "m_camp": "Rohwer",
    "pop": 8,
    "lastaddress_lat": 37.1326,
    "lastaddress_lng": -121.6417,
    "m_camp_lat": 33.75,
    "m_camp_lng": -91.2667
  },
  {
    "lastaddress": "Winters",
    "m_originalstate": "CA",
    "m_camp": "Poston",
    "pop": 8,
    "lastaddress_lat": 38.532,
    "lastaddress_lng": -121.9781,
    "m_camp_lat": 34.15,
    "m_camp_lng": -114.2833
  },
  {
    "lastaddress": "Seattle",
    "m_originalstate": "WA",
    "m_camp": "Poston",
    "pop": 8,
    "lastaddress_lat": 47.6211,
    "lastaddress_lng": -122.3244,
    "m_camp_lat": 34.15,
    "m_camp_lng": -114.2833
  },
  {
    "lastaddress": "Tulare",
    "m_originalstate": "CA",
    "m_camp": "Amache",
    "pop": 8,
    "lastaddress_lat": 36.1996,
    "lastaddress_lng": -119.34,
    "m_camp_lat": 38.05,
    "m_camp_lng": -102.3
  },
  {
    "lastaddress": "San Jacinto",
    "m_originalstate": "CA",
    "m_camp": "Heartmountain",
    "pop": 8,
    "lastaddress_lat": 33.797,
    "lastaddress_lng": -116.9916,
    "m_camp_lat": 44.5167,
    "m_camp_lng": -109.05
  },
  {
    "lastaddress": "Salinas",
    "m_originalstate": "CA",
    "m_camp": "Heartmountain",
    "pop": 7,
    "lastaddress_lat": 36.6884,
    "lastaddress_lng": -121.6317,
    "m_camp_lat": 44.5167,
    "m_camp_lng": -109.05
  },
  {
    "lastaddress": "San Leandro",
    "m_originalstate": "CA",
    "m_camp": "Poston",
    "pop": 7,
    "lastaddress_lat": 37.7071,
    "lastaddress_lng": -122.1601,
    "m_camp_lat": 34.15,
    "m_camp_lng": -114.2833
  },
  {
    "lastaddress": "Selma",
    "m_originalstate": "CA",
    "m_camp": "Tulelake",
    "pop": 7,
    "lastaddress_lat": 36.5715,
    "lastaddress_lng": -119.6143,
    "m_camp_lat": 41.8833,
    "m_camp_lng": -121.3667
  },
  {
    "lastaddress": "Seattle",
    "m_originalstate": "WA",
    "m_camp": "Gilariver",
    "pop": 7,
    "lastaddress_lat": 47.6211,
    "lastaddress_lng": -122.3244,
    "m_camp_lat": 32.1667,
    "m_camp_lng": -111.8667
  },
  {
    "lastaddress": "Isleton",
    "m_originalstate": "CA",
    "m_camp": "Topaz",
    "pop": 7,
    "lastaddress_lat": 38.1617,
    "lastaddress_lng": -121.6051,
    "m_camp_lat": 39.3833,
    "m_camp_lng": -112.7167
  },
  {
    "lastaddress": "Kauai",
    "m_originalstate": "HI",
    "m_camp": "Topaz",
    "pop": 7,
    "lastaddress_lat": 0,
    "lastaddress_lng": 0,
    "m_camp_lat": 39.3833,
    "m_camp_lng": -112.7167
  },
  {
    "lastaddress": "Vallejo",
    "m_originalstate": "CA",
    "m_camp": "Tulelake",
    "pop": 7,
    "lastaddress_lat": 38.1133,
    "lastaddress_lng": -122.2358,
    "m_camp_lat": 41.8833,
    "m_camp_lng": -121.3667
  },
  {
    "lastaddress": "Oakland",
    "m_originalstate": "CA",
    "m_camp": "Manzanar",
    "pop": 7,
    "lastaddress_lat": 37.7903,
    "lastaddress_lng": -122.2165,
    "m_camp_lat": 36.7333,
    "m_camp_lng": -118.0667
  },
  {
    "lastaddress": "Napa",
    "m_originalstate": "CA",
    "m_camp": "Gilariver",
    "pop": 7,
    "lastaddress_lat": 38.2976,
    "lastaddress_lng": -122.3011,
    "m_camp_lat": 32.1667,
    "m_camp_lng": -111.8667
  },
  {
    "lastaddress": "Visalia",
    "m_originalstate": "CA",
    "m_camp": "Poston",
    "pop": 7,
    "lastaddress_lat": 36.3276,
    "lastaddress_lng": -119.3269,
    "m_camp_lat": 34.15,
    "m_camp_lng": -114.2833
  },
  {
    "lastaddress": "Spokane",
    "m_originalstate": "WA",
    "m_camp": "Gilariver",
    "pop": 7,
    "lastaddress_lat": 47.6671,
    "lastaddress_lng": -117.433,
    "m_camp_lat": 32.1667,
    "m_camp_lng": -111.8667
  },
  {
    "lastaddress": "Sacramento",
    "m_originalstate": "CA",
    "m_camp": "Minidoka",
    "pop": 7,
    "lastaddress_lat": 38.5667,
    "lastaddress_lng": -121.4683,
    "m_camp_lat": 42.6667,
    "m_camp_lng": -114.2333
  },
  {
    "lastaddress": "Selma",
    "m_originalstate": "CA",
    "m_camp": "Rohwer",
    "pop": 7,
    "lastaddress_lat": 36.5715,
    "lastaddress_lng": -119.6143,
    "m_camp_lat": 33.75,
    "m_camp_lng": -91.2667
  },
  {
    "lastaddress": "Sacramento",
    "m_originalstate": "CA",
    "m_camp": "Heartmountain",
    "pop": 7,
    "lastaddress_lat": 38.5667,
    "lastaddress_lng": -121.4683,
    "m_camp_lat": 44.5167,
    "m_camp_lng": -109.05
  },
  {
    "lastaddress": "Santa Maria",
    "m_originalstate": "CA",
    "m_camp": "Jerome",
    "pop": 7,
    "lastaddress_lat": 34.9334,
    "lastaddress_lng": -120.4432,
    "m_camp_lat": 33.3833,
    "m_camp_lng": -91.4667
  },
  {
    "lastaddress": "Watsonville",
    "m_originalstate": "CA",
    "m_camp": "Rohwer",
    "pop": 7,
    "lastaddress_lat": 36.9206,
    "lastaddress_lng": -121.7706,
    "m_camp_lat": 33.75,
    "m_camp_lng": -91.2667
  },
  {
    "lastaddress": "Petaluma",
    "m_originalstate": "CA",
    "m_camp": "Heartmountain",
    "pop": 7,
    "lastaddress_lat": 38.2423,
    "lastaddress_lng": -122.6267,
    "m_camp_lat": 44.5167,
    "m_camp_lng": -109.05
  },
  {
    "lastaddress": "Newport Beach",
    "m_originalstate": "CA",
    "m_camp": "Amache",
    "pop": 7,
    "lastaddress_lat": 33.6151,
    "lastaddress_lng": -117.8669,
    "m_camp_lat": 38.05,
    "m_camp_lng": -102.3
  },
  {
    "lastaddress": "Tucson",
    "m_originalstate": "AZ",
    "m_camp": "Poston",
    "pop": 7,
    "lastaddress_lat": 32.1545,
    "lastaddress_lng": -110.8782,
    "m_camp_lat": 34.15,
    "m_camp_lng": -114.2833
  },
  {
    "lastaddress": "Tukwila",
    "m_originalstate": "WA",
    "m_camp": "Gilariver",
    "pop": 7,
    "lastaddress_lat": 47.4749,
    "lastaddress_lng": -122.2727,
    "m_camp_lat": 32.1667,
    "m_camp_lng": -111.8667
  },
  {
    "lastaddress": "Maui",
    "m_originalstate": "HI",
    "m_camp": "Tulelake",
    "pop": 7,
    "lastaddress_lat": 0,
    "lastaddress_lng": 0,
    "m_camp_lat": 41.8833,
    "m_camp_lng": -121.3667
  },
  {
    "lastaddress": "Petaluma",
    "m_originalstate": "CA",
    "m_camp": "Tulelake",
    "pop": 6,
    "lastaddress_lat": 38.2423,
    "lastaddress_lng": -122.6267,
    "m_camp_lat": 41.8833,
    "m_camp_lng": -121.3667
  },
  {
    "lastaddress": "San Francisco",
    "m_originalstate": "CA",
    "m_camp": "Minidoka",
    "pop": 6,
    "lastaddress_lat": 37.7562,
    "lastaddress_lng": -122.443,
    "m_camp_lat": 42.6667,
    "m_camp_lng": -114.2333
  },
  {
    "lastaddress": "St. Helena",
    "m_originalstate": "CA",
    "m_camp": "Amache",
    "pop": 6,
    "lastaddress_lat": 38.5063,
    "lastaddress_lng": -122.4682,
    "m_camp_lat": 38.05,
    "m_camp_lng": -102.3
  },
  {
    "lastaddress": "Morgan Hill",
    "m_originalstate": "CA",
    "m_camp": "Jerome",
    "pop": 6,
    "lastaddress_lat": 37.1326,
    "lastaddress_lng": -121.6417,
    "m_camp_lat": 33.3833,
    "m_camp_lng": -91.4667
  },
  {
    "lastaddress": "Oceanside",
    "m_originalstate": "CA",
    "m_camp": "Manzanar",
    "pop": 6,
    "lastaddress_lat": 33.2247,
    "lastaddress_lng": -117.3083,
    "m_camp_lat": 36.7333,
    "m_camp_lng": -118.0667
  },
  {
    "lastaddress": "Bakersfield",
    "m_originalstate": "CA",
    "m_camp": "Minidoka",
    "pop": 6,
    "lastaddress_lat": 35.3529,
    "lastaddress_lng": -119.0359,
    "m_camp_lat": 42.6667,
    "m_camp_lng": -114.2333
  },